City_ID,City,Lat,Lng,Max Temp,Humidity,Cloudiness,Wind Speed,Country,Date
0,nova vicosa,-17.8919,-39.3719,27.24,77,4,2.68,BR,1713892539
1,loango,-4.6719,11.8312,28.81,84,40,4.12,CG,1713892253
2,waitangi,-43.9535,-176.5597,13.23,90,93,5.36,NZ,1713892254
3,fortuna,40.5982,-124.1573,14.96,88,100,1.34,US,1713892539
4,kingston,17.997,-76.7936,32.87,66,20,4.12,JM,1713892245
5,maragogi,-9.0122,-35.2225,28.98,71,92,3.53,BR,1713892574
6,boende,-0.2167,20.8667,27.05,74,80,0.34,CD,1713892177
7,alice springs,-23.7,133.8833,15.75,72,75,1.54,AU,1713892258
8,dubti,11.7361,41.0853,34.94,38,47,3.22,ET,1713892260
9,alesund,62.4723,6.1549,5.74,81,75,7.2,NO,1713892348
10,praia da vitoria,38.7333,-27.0667,18.14,77,75,4.73,PT,1713892577
11,lata,40.1629,-8.3327,21.07,42,0,3.32,PT,1713892577
12,nouadhibou,20.931,-17.0347,18.06,88,65,10.09,MR,1713892578
13,mount gambier,-37.8333,140.7667,9.95,73,77,4.05,AU,1713892578
14,iqaluit,63.7506,-68.5145,-13.15,85,100,15.43,CA,1713892510
15,west island,-12.1568,96.8225,26.99,89,75,7.2,CC,1713892578
16,saipan,15.1355,145.701,26.39,83,40,4.12,MP,1713892364
17,san antonio,29.4241,-98.4936,22.79,76,100,5.14,US,1713892435
18,anadyr,64.75,177.4833,-8.72,92,75,2.0,RU,1713892578
19,buenaventura,3.8801,-77.0312,30.55,64,100,1.16,CO,1713892101
20,akureyri,65.6835,-18.0878,4.96,75,0,3.6,IS,1713892580
21,santana,-0.0583,-51.1817,31.1,66,40,4.12,BR,1713892492
22,puerto san jose,13.9256,-90.8244,31.46,60,44,4.09,GT,1713892446
23,bilibino,68.0546,166.4372,-25.07,100,25,2.41,RU,1713892581
24,holualoa,19.6228,-155.9522,21.91,91,75,0.0,US,1713892581
25,hawaiian paradise park,19.5933,-154.9731,22.73,97,100,0.45,US,1713892582
26,port-aux-francais,-49.35,70.2167,4.19,68,36,16.69,TF,1713892583
27,lebu,-37.6167,-73.65,13.73,56,1,2.61,CL,1713892583
28,port lincoln,-34.7333,135.8667,13.41,52,53,7.13,AU,1713892583
29,ushuaia,-54.8,-68.3,4.79,81,20,1.03,AR,1713892583
30,badger,64.8,-147.5333,4.52,71,75,0.0,US,1713892584
31,adamstown,-25.066,-130.1015,22.88,77,100,9.05,PN,1713892584
32,bardai,11.65,7.2333,35.92,22,100,4.57,NG,1713892584
33,bria,6.5423,21.9863,31.75,36,93,1.47,CF,1713892585
34,jining,35.405,116.5814,12.34,29,0,3.41,CN,1713892585
35,katsuura,35.1333,140.3,16.0,77,100,6.76,JP,1713892585
36,ranong,9.9658,98.6348,27.69,84,100,0.69,TH,1713892585
37,kenai,60.5544,-151.2583,4.05,74,100,5.66,US,1713892586
38,kita,13.0349,-9.4895,41.43,11,26,2.29,ML,1713892586
39,fort mcmurray,56.7268,-111.381,12.77,35,0,2.06,CA,1713892587
40,forster,-32.1667,152.5167,13.54,100,15,2.91,AU,1713892587
41,college,64.8569,-147.8028,4.56,69,75,0.45,US,1713892587
42,kondagaon,19.6,81.6667,29.81,36,44,1.8,IN,1713892588
43,grytviken,-54.2811,-36.5092,-1.01,73,46,15.26,GS,1713892589
44,mandalgovi,45.7625,106.2708,5.83,51,23,2.4,MN,1713892590
45,nadym,65.5333,72.5167,-14.46,92,24,3.73,RU,1713892593
46,olonkinbyen,70.9221,-8.7187,-1.54,75,0,3.74,SJ,1713892593
47,gadzhiyevo,69.2551,33.3362,-0.29,88,99,10.27,RU,1713892593
48,edinburgh of the seven seas,-37.0676,-12.3116,16.27,75,100,6.73,SH,1713892594
49,dolbeau-mistassini,48.8763,-72.212,17.36,46,94,8.66,CA,1713892594
50,igrim,63.1906,64.4162,-7.53,85,16,2.9,RU,1713892594
51,bethel,41.3712,-73.414,19.08,35,0,5.14,US,1713892368
52,port elizabeth,-33.918,25.5701,16.16,88,0,0.51,ZA,1713892594
53,callao,-12.0667,-77.15,23.16,78,42,3.6,PE,1713892564
54,laguna,38.421,-121.4238,18.04,65,0,6.17,US,1713892537
55,dolinsk,47.35,142.8,3.18,94,78,3.41,RU,1713892595
56,grand-bassam,5.2118,-3.7388,31.98,67,72,3.15,CI,1713892595
57,puerto ayora,-0.7393,-90.3518,29.98,77,58,4.52,EC,1713892595
58,francisco beltrao,-26.0811,-53.055,27.16,66,19,3.5,BR,1713892490
59,tazovsky,67.4667,78.7,-15.75,97,36,4.37,RU,1713892595
60,tanjungbalai,2.9667,99.8,25.87,92,100,1.38,ID,1713892595
61,dzhalagash,45.0833,64.6667,23.47,33,72,1.92,KZ,1713892595
62,awjilah,29.1081,21.2869,23.76,50,57,11.26,LY,1713892596
63,remire-montjoly,4.9167,-52.2667,32.02,66,75,8.23,GF,1713892321
64,talnakh,69.4865,88.3972,-16.35,91,81,0.39,RU,1713892596
65,al muwayh,22.4333,41.7583,28.49,11,0,4.92,SA,1713892596
66,alaghsas,17.0187,8.0168,41.94,6,0,1.03,NE,1713892596
67,kapuskasing,49.4169,-82.4331,-0.95,86,100,6.69,CA,1713892596
68,ilza,51.1631,21.2398,10.47,61,82,3.29,PL,1713892596
69,guiratinga,-16.3494,-53.7583,32.63,31,40,0.55,BR,1713892596
70,vorgashor,67.5833,63.95,-14.55,98,25,3.73,RU,1713892596
71,longonjo,-12.9067,15.2533,22.08,56,100,1.5,AO,1713892372
72,enewetak,11.3474,162.3373,27.56,80,83,9.34,MH,1713892597
73,lubang,13.8584,120.124,29.26,81,36,4.69,PH,1713892597
74,chonchi,-42.6128,-73.8092,12.84,62,71,2.16,CL,1713892597
75,puerto deseado,-47.7503,-65.8938,10.7,57,83,6.64,AR,1713892597
76,afaahiti,-17.75,-149.2833,25.93,78,7,3.67,PF,1713892597
77,constantia,44.1833,28.65,10.39,87,100,8.02,RO,1713892597
78,wailua homesteads,22.0669,-159.378,22.7,80,75,6.69,US,1713892597
79,valdivia,-39.8142,-73.2459,14.05,53,81,1.44,CL,1713892531
80,kodiak,57.79,-152.4072,4.73,93,100,4.12,US,1713892355
81,punta arenas,-53.15,-70.9167,9.06,71,75,8.75,CL,1713892058
82,ust-nera,64.5667,143.2,-6.42,92,100,1.13,RU,1713892598
83,port mathurin,-19.6833,63.4167,27.13,77,83,7.61,MU,1713892598
84,dwarka,22.2394,68.9678,26.52,80,0,5.64,IN,1713892598
85,coquimbo,-29.9533,-71.3436,18.22,73,3,1.94,CL,1713892288
86,bamboo flat,11.7,92.7167,29.05,84,20,1.03,IN,1713892598
87,yeppoon,-23.1333,150.7333,18.88,89,0,4.76,AU,1713892598
88,fuglafjordur,62.244,-6.814,6.26,72,20,5.2,FO,1713892598
89,invercargill,-46.4,168.35,13.9,81,100,1.34,NZ,1713892599
90,petropavlovsk-kamchatsky,53.0452,158.6483,2.1,85,0,2.0,RU,1713892599
91,monrovia,6.3005,-10.7969,32.87,74,84,5.42,LR,1713892599
92,aasiaat,68.7098,-52.8699,5.11,74,86,7.86,GL,1713892599
93,puerto natales,-51.7236,-72.4875,11.25,46,75,10.8,CL,1713892291
94,thinadhoo,0.5333,72.9333,29.35,76,100,5.77,MV,1713892599
95,palmer,42.1584,-72.3287,18.8,27,20,7.2,US,1713892575
96,el rama,12.1596,-84.2195,33.65,43,67,3.78,NI,1713892599
97,blackmans bay,-43.0167,147.3167,9.07,91,100,8.29,AU,1713892599
98,newquay,50.4132,-5.0819,12.24,82,40,7.72,GB,1713892599
99,khuzdar,27.7384,66.6434,24.93,17,3,1.11,PK,1713892600
100,tshikapa,-6.4167,20.8,26.81,70,100,1.17,CD,1713892046
101,hasaki,35.7333,140.8333,15.22,66,100,5.8,JP,1713892094
102,albany,42.6001,-73.9662,19.77,26,11,3.13,US,1713892600
103,la mira,18.035,-102.3266,30.98,28,81,3.58,MX,1713892600
104,kalmunai,7.4167,81.8167,28.08,79,92,3.31,LK,1713892600
105,longyearbyen,78.2186,15.6401,-1.09,69,20,2.57,SJ,1713892600
106,margaret river,-33.95,115.0667,10.87,67,62,5.1,AU,1713892600
107,ocean shores,46.9737,-124.1563,14.42,74,0,2.06,US,1713892509
108,axim,4.8699,-2.2405,29.42,72,97,2.77,GH,1713892043
109,toledo,39.8333,-4.0,17.27,32,24,4.35,ES,1713892174
110,stanley,54.868,-1.6985,8.77,66,20,4.63,GB,1713892601
111,siwa oasis,29.2041,25.5195,35.77,5,37,4.01,EG,1713892046
112,salalah,17.0151,54.0924,29.05,74,40,3.09,OM,1713892473
113,alakurtti,66.9672,30.3491,-0.8,98,100,4.59,RU,1713892601
114,sovetskaya gavan',48.9723,140.2878,3.95,84,80,3.14,RU,1713892601
115,hilo,19.7297,-155.09,22.93,95,100,0.0,US,1713892322
116,hithadhoo,-0.6,73.0833,27.98,79,100,4.09,MV,1713892601
117,vila franca do campo,37.7167,-25.4333,19.23,99,43,4.59,PT,1713892602
118,avarua,-21.2078,-159.775,20.03,100,56,1.03,CK,1713892602
119,nadi,-17.8,177.4167,24.0,94,20,1.54,FJ,1713892602
120,al hoceima,35.2433,-3.9309,19.57,64,20,3.6,MA,1713892602
121,sitka,57.0531,-135.33,9.94,53,75,4.63,US,1713892602
122,yellowknife,62.456,-114.3525,-0.33,82,75,3.09,CA,1713892602
123,menongue,-14.6585,17.691,20.86,45,100,1.91,AO,1713892602
124,slavgorod,52.9978,78.6449,2.09,42,58,3.86,RU,1713892602
125,bredasdorp,-34.5322,20.0403,17.23,88,99,1.99,ZA,1713892303
126,brookings,44.3114,-96.7984,13.19,50,40,9.77,US,1713892303
127,labrador city,52.9463,-66.9114,-8.23,75,100,4.92,CA,1713892512
128,ambovombe,-25.1667,46.0833,22.46,80,38,6.77,MG,1713892605
129,hermanus,-34.4187,19.2345,16.58,89,100,0.99,ZA,1713892605
130,ancud,-41.8697,-73.8203,12.07,59,53,2.24,CL,1713892583
131,kidal,18.4411,1.4078,40.39,8,4,5.04,ML,1713892605
132,sao domingos do maranhao,-5.5758,-44.3853,28.48,81,98,1.28,BR,1713892309
133,labytnangi,66.6572,66.4183,-10.35,92,95,1.98,RU,1713892605
134,uturoa,-16.7333,-151.4333,27.73,77,9,1.3,PF,1713892605
135,sept-iles,50.2001,-66.3821,0.59,68,20,6.17,CA,1713892607
136,hamilton,39.1834,-84.5333,18.69,44,0,9.26,US,1713892488
137,kostanay,53.1667,63.5833,10.16,71,0,8.0,KZ,1713892312
138,isafjordur,66.0755,-23.124,6.02,81,75,1.54,IS,1713892312
139,taoudenni,22.6783,-3.9836,38.57,7,58,5.1,ML,1713892312
140,walvis bay,-22.9575,14.5053,18.22,74,19,8.04,NA,1713892609
141,pueblo nuevo,23.3833,-105.3833,22.67,13,7,2.94,MX,1713892644
142,mindelo,16.8901,-24.9804,25.75,53,75,5.14,CV,1713892644
143,smithers,54.7804,-127.1743,8.18,42,75,4.63,CA,1713892644
144,gagliano del capo,39.8442,18.3695,16.36,77,0,3.09,IT,1713892645
145,malvik,63.4333,10.6833,5.77,74,75,6.69,NO,1713892646
146,botosani,47.75,26.6667,11.47,75,100,2.24,RO,1713892114
147,upper sandusky,40.8273,-83.2813,16.11,57,100,8.97,US,1713892646
148,bezhetsk,57.7851,36.6965,6.21,71,100,4.51,RU,1713892646
149,dudinka,69.4058,86.1778,-10.74,87,83,6.26,RU,1713892590
150,hancheng,32.5186,112.3522,15.5,47,100,3.14,CN,1713892240
151,severo-yeniseyskiy,60.3725,93.0408,-2.46,91,100,3.58,RU,1713892646
152,umm kaddadah,13.6017,26.6876,32.71,7,0,5.66,SD,1713892647
153,georgetown,5.4112,100.3354,29.97,84,20,1.03,MY,1713892511
154,mahajanga,-15.7167,46.3167,28.96,67,31,3.59,MG,1713892647
155,suwayr,30.1171,40.3893,29.52,12,2,4.06,SA,1713892650
156,fort bragg,35.139,-79.006,20.91,35,0,3.6,US,1713892650
157,dakhla,23.6848,-15.958,21.01,73,100,9.26,EH,1713892650
158,port alfred,-33.5906,26.891,19.54,93,79,0.45,ZA,1713892650
159,atafu village,-8.5421,-172.5159,29.24,76,73,3.21,TK,1713892650
160,lihue,21.9789,-159.3672,23.03,73,75,6.69,US,1713892652
161,grants,35.1473,-107.8514,21.13,13,0,1.54,US,1713892653
162,port saint john's,-31.6229,29.5448,22.38,83,81,3.82,ZA,1713892655
163,calchaqui,-29.8877,-60.287,20.42,95,100,6.47,AR,1713892655
164,boundiali,9.5217,-6.4869,35.31,31,55,2.59,CI,1713892655
165,gambela,8.25,34.5833,33.07,29,51,1.75,ET,1713892655
166,cidreira,-30.1811,-50.2056,24.74,75,76,3.64,BR,1713892655
167,miranda,3.2499,-76.2281,27.07,68,99,2.34,CO,1713892655
168,portland,45.5234,-122.6762,18.92,43,75,2.68,US,1713892365
169,utrik,11.2278,169.8474,26.82,86,71,9.94,MH,1713892656
170,bikenibeu village,1.3673,173.1241,27.98,83,20,5.14,KI,1713892656
171,ta`u,-14.2336,-169.5144,28.82,73,85,4.51,AS,1713892656
172,novodvinsk,64.4165,40.8122,2.1,97,100,4.01,RU,1713891988
173,beinamar,8.6698,15.3813,34.67,29,77,1.69,TD,1713892656
174,whitehorse,60.7161,-135.0538,2.43,59,75,1.03,CA,1713892656
175,susuman,62.7833,148.1667,-8.34,95,100,1.34,RU,1713892656
176,xilin hot,43.9667,116.0333,9.85,23,3,6.6,CN,1713892656
177,cockburn town,21.4612,-71.1419,25.7,77,2,4.06,TC,1713892656
178,rundu,-17.9333,19.7667,24.07,20,26,2.84,NA,1713892656
179,gereida,11.2811,25.1414,35.83,8,6,4.25,SD,1713892657
180,thompson,55.7435,-97.8558,-7.91,41,0,2.57,CA,1713892657
181,pariaman,-0.619,100.12,27.03,93,100,3.85,ID,1713892657
182,khandyga,62.6667,135.6,0.6,87,96,2.35,RU,1713892657
183,zeya,53.75,127.2667,5.83,83,92,1.96,RU,1713892657
184,chernyshevskiy,63.0128,112.4714,-2.73,95,91,3.2,RU,1713892657
185,codrington,-38.2667,141.9667,12.03,66,82,9.04,AU,1713892657
186,maua,-23.6678,-46.4614,30.2,42,6,2.34,BR,1713892658
187,tiksi,71.6872,128.8694,-11.38,95,100,3.73,RU,1713892658
188,balakliya,49.4627,36.8595,9.83,68,8,3.51,UA,1713892658
189,chillicothe,39.3331,-82.9824,20.03,31,0,6.69,US,1713892280
190,brumunddal,60.881,10.9395,5.56,62,97,2.11,NO,1713892658
191,mariinsk,56.2139,87.7472,-6.74,62,89,3.13,RU,1713892658
192,montagu,-40.7667,144.9667,9.81,82,100,11.11,AU,1713892658
193,yelovo,57.0538,54.9207,14.4,73,11,7.73,RU,1713892658
194,qaqortoq,60.7167,-46.0333,4.85,77,100,1.94,GL,1713892659
195,iskateley,67.6803,53.1512,-13.32,84,7,3.58,RU,1713892659
196,udachny,66.4167,112.4,-4.75,95,70,3.76,RU,1713892659
197,bubaque,11.2833,-15.8333,25.35,71,57,7.67,GW,1713892241
198,uacu cungo,-11.3634,15.1208,21.56,70,100,0.38,AO,1713892659
199,juan griego,11.0817,-63.9655,31.02,61,1,5.78,VE,1713892660
200,spring creek,40.7266,-115.5859,14.28,58,100,2.24,US,1713892660
201,ribeira grande,38.5167,-28.7,20.22,64,20,7.6,PT,1713892660
202,oppdal,62.5943,9.6912,0.23,93,100,4.11,NO,1713892660
203,jalingo,8.8833,11.3667,38.07,25,49,2.01,NG,1713892660
204,papatowai,-46.5619,169.4708,13.54,81,100,4.88,NZ,1713892660
205,hadibu,12.65,54.0333,28.92,74,29,2.3,YE,1713892660
206,mahabad,36.7631,45.7222,13.84,54,22,1.95,IR,1713892660
207,antonio enes,-16.2325,39.9086,25.8,74,6,3.85,MZ,1713892229
208,keflavik,64.0049,-22.5624,10.95,76,100,3.6,IS,1713892661
209,la plata,-34.9215,-57.9545,20.46,59,17,5.3,AR,1713891993
210,haiku-pauwela,20.9219,-156.3051,22.25,82,20,7.2,US,1713892661
211,paracuru,-3.41,-39.0306,29.5,81,100,0.49,BR,1713892661
212,st. john's,47.5649,-52.7093,7.66,45,20,10.29,CA,1713892553
213,melfort,52.8667,-104.6177,8.34,65,78,2.76,CA,1713892104
214,la'ie,21.6477,-157.9253,23.03,76,92,4.02,US,1713892661
215,yanam,16.7333,82.2167,26.2,88,0,2.11,IN,1713892661
216,ilulissat,69.2167,-51.1,12.01,43,75,9.26,GL,1713892662
217,zouerate,22.7187,-12.4521,34.2,12,100,4.55,MR,1713892662
218,derzhavinsk,51.1,66.3167,17.95,51,3,4.98,KZ,1713892662
219,hirara,24.8,125.2833,24.92,94,75,1.54,JP,1713892662
220,laojunmiao,39.8333,97.7333,11.56,13,0,3.39,CN,1713892662
221,dawei,14.0833,98.2,26.26,83,4,0.63,MM,1713892662
222,klyuchi,52.2667,79.1667,3.36,41,50,4.45,RU,1713892662
223,tecuala,22.3986,-105.4569,33.03,24,3,2.17,MX,1713892662
224,nejo,9.5,35.5,21.93,21,2,2.21,ET,1713892663
225,khanty-mansiysk,61.0042,69.0019,-7.94,62,0,2.0,RU,1713892663
226,tamiahua,21.2667,-97.45,27.08,62,92,3.17,MX,1713892663
227,mar del plata,-38.0023,-57.5575,19.18,58,20,7.72,AR,1713892003
228,kokopo,-4.352,152.2633,26.34,85,81,3.56,PG,1713892663
229,tamandare,-8.7597,-35.1047,29.46,69,86,2.92,BR,1713892663
230,ljusdal,61.8288,16.0913,3.25,80,100,1.08,SE,1713892663
231,shimoda,34.6667,138.95,14.5,88,100,7.08,JP,1713892663
232,rongelap,11.1635,166.8941,27.58,82,98,8.73,MH,1713892664
233,itoman,26.1247,127.6694,24.21,94,75,8.23,JP,1713892664
234,mizan teferi,6.9833,35.5833,21.51,75,58,1.44,ET,1713892664
235,yelizovo,53.1873,158.3805,2.84,77,0,3.58,RU,1713892664
236,tibu,8.639,-72.7358,32.11,55,69,2.15,CO,1713892664
237,malango,-2.9627,119.9001,20.09,98,89,1.11,ID,1713892664
238,howrah,22.5892,88.3103,33.0,52,20,4.12,IN,1713892664
239,rybinsk,58.0446,38.8426,7.4,69,46,1.79,RU,1713892442
240,albertina,-22.2008,-46.6158,26.49,40,11,2.34,BR,1713892664
241,curanilahue,-37.4667,-73.35,16.27,38,0,1.92,CL,1713892665
242,coahuayana de hidalgo,18.7,-103.6583,32.61,31,2,3.27,MX,1713892666
243,usogorsk,63.4106,48.6872,-0.74,97,100,5.25,RU,1713892087
244,geraldton,-28.7667,114.6,22.23,33,100,11.83,AU,1713892668
245,tucuma,-0.1833,-50.05,27.77,85,81,4.03,BR,1713892670
246,alofi,-19.0595,-169.9187,22.94,94,99,0.51,NU,1713892671
247,jalai nur,49.45,117.7,4.64,70,99,0.51,CN,1713892672
248,merizo village,13.2658,144.6691,26.85,95,78,5.58,GU,1713892672
249,karaton,-6.3424,106.1045,23.43,96,99,0.52,ID,1713892672
250,san patricio,28.017,-97.5169,24.94,63,40,5.51,US,1713892672
251,san marcos,33.1434,-117.1661,17.49,79,100,1.79,US,1713892672
252,new norfolk,-42.7826,147.0587,9.72,97,100,1.47,AU,1713892673
253,pyapon,16.2833,95.6833,29.23,71,1,4.41,MM,1713892673
254,kongsvinger,60.1905,11.9977,6.92,52,98,3.02,NO,1713892673
255,tuy hoa,13.0833,109.3,25.62,93,36,1.63,VN,1713892673
256,newman,37.3138,-121.0208,18.35,62,40,4.92,US,1713892708
257,muravlenko,63.7898,74.523,-17.61,95,56,4.31,RU,1713892708
258,guaratinga,-16.5667,-39.5667,27.9,73,23,1.92,BR,1713892453
259,yuzhno-kurilsk,44.0306,145.8556,2.43,97,88,1.92,RU,1713892709
260,genc,38.7507,40.5603,18.05,38,19,2.32,TR,1713892709
261,jamestown,42.097,-79.2353,18.77,32,75,8.75,US,1713892709
262,zaragoza,41.6561,-0.8773,13.34,51,20,12.35,ES,1713892414
263,parras de la fuente,25.4167,-102.1833,24.43,39,2,1.35,MX,1713892710
264,topeka,39.0483,-95.678,22.28,49,86,1.79,US,1713892564
265,nowshahr,36.649,51.496,16.97,94,100,0.0,IR,1713892710
266,nybro,56.7446,15.9071,5.69,57,93,3.61,SE,1713892711
267,vyazemskiy,47.5378,134.7525,12.13,68,100,1.61,RU,1713892712
268,acarau,-2.8856,-40.12,28.49,78,38,3.56,BR,1713892487
269,dryden,49.7833,-92.7503,2.16,48,0,6.17,CA,1713892510
270,nueva gerona,21.8833,-82.8,29.16,54,23,5.62,CU,1713892714
271,sterling,39.0062,-77.4286,22.14,28,20,5.66,US,1713892425
272,sao gabriel da cachoeira,-0.1303,-67.0892,28.89,84,40,2.57,BR,1713892714
273,pacific grove,36.6177,-121.9166,15.2,75,75,6.26,US,1713892714
274,abilene,32.4487,-99.7331,24.12,57,0,8.23,US,1713892141
275,belogorsk,50.9158,128.4611,9.73,60,100,3.01,RU,1713892715
276,santiago de cao,-7.9589,-79.2392,19.07,88,75,5.66,PE,1713892715
277,salinas,36.6777,-121.6555,15.43,72,100,4.12,US,1713892553
278,serra,-20.1286,-40.3078,29.7,62,20,4.63,BR,1713892715
279,muskogee,35.5834,-95.3336,24.42,57,0,7.72,US,1713892715
280,punta del este,-34.9667,-54.95,20.06,88,100,8.49,UY,1713892715
281,angaur state,6.906,134.13,28.56,76,100,3.3,PW,1713892715
282,timimoun,29.2639,0.231,31.21,10,0,0.0,DZ,1713892715
283,nova olimpia,-14.7972,-57.2881,32.38,56,6,2.32,BR,1713892715
284,karratha,-20.7377,116.8463,24.7,52,8,3.21,AU,1713892716
285,touros,-5.1989,-35.4608,30.59,65,89,5.39,BR,1713892562
286,richards bay,-28.783,32.0377,22.19,85,63,2.3,ZA,1713892716
287,taitung city,22.7583,121.1444,27.0,72,100,1.43,TW,1713892716
288,kuloy,61.0305,42.4925,12.27,84,100,3.37,RU,1713892716
289,kapa'a,22.0752,-159.319,23.18,79,75,6.69,US,1713892716
290,inhambane,-23.865,35.3833,23.84,75,31,2.4,MZ,1713892716
291,mariental,-24.6333,17.9667,28.68,16,46,2.75,NA,1713892716
292,boguchany,58.3814,97.4531,-2.3,89,96,3.58,RU,1713892716
293,chuguyevka,44.1653,133.8633,5.98,72,100,1.93,RU,1713892717
294,sinop,41.7711,34.8709,16.45,66,40,2.12,TR,1713892717
295,kuanda,56.3161,116.0806,-0.16,83,100,0.7,RU,1713892419
296,saint-philippe,-21.3585,55.7679,24.77,87,44,3.89,RE,1713892717
297,oita,33.2381,131.6125,16.77,99,98,0.7,JP,1713892717
298,agat village,13.3886,144.6585,27.06,93,100,2.57,GU,1713892717
299,pauini,-7.7136,-66.9764,33.32,56,23,0.66,BR,1713892717
300,hillvue,-31.1244,150.915,17.95,72,100,2.06,AU,1713892717
301,masterton,-40.9597,175.6575,11.6,96,33,1.88,NZ,1713892717
302,fortaleza,-3.7227,-38.5247,30.07,74,20,4.63,BR,1713892459
303,punto fijo,11.6956,-70.1996,30.17,61,67,7.13,VE,1713892522
304,san antonio de pale,-1.4014,5.6325,28.72,71,100,1.19,GQ,1713892712
305,jacmel,18.2342,-72.5347,29.25,65,62,2.79,HT,1713892718
306,sisimiut,66.9395,-53.6735,3.45,89,89,7.82,GL,1713892718
307,ola,59.5833,151.2833,-0.48,92,70,0.65,RU,1713892718
308,mugia,43.1041,-9.2179,17.17,74,0,8.77,ES,1713892718
309,kerikeri,-35.2268,173.9474,9.95,93,3,1.66,NZ,1713892718
310,kavaratti,10.5669,72.642,30.17,69,99,4.6,IN,1713892718
311,santa cruz,-17.8,-63.1667,32.7,58,40,7.2,BO,1713892622
312,atasehir,40.9833,29.1167,20.05,56,0,5.66,TR,1713892719
313,mechanicsville,37.6088,-77.3733,22.4,34,20,6.17,US,1713892719
314,bana,5.1481,10.2762,21.54,80,43,1.05,CM,1713892719
315,cuatro cienegas de carranza,26.9833,-102.0833,25.93,39,0,2.04,MX,1713892719
316,la passe,45.5549,-0.8967,13.32,54,53,5.91,FR,1713892719
317,onguday,50.75,86.15,0.91,91,100,1.31,RU,1713892719
318,manta,-0.95,-80.7333,29.88,74,40,4.12,EC,1713892719
319,revda,56.801,59.9303,3.51,61,75,5.77,RU,1713892720
320,sheopur,25.6667,76.7,32.44,18,7,3.25,IN,1713892720
321,woods creek,47.8787,-121.8985,17.46,53,84,0.94,US,1713892720
322,weno,7.4515,151.8468,27.97,83,100,3.6,FM,1713892720
323,hecelchakan,20.1667,-90.1333,36.73,26,0,3.23,MX,1713892720
324,sydney mines,46.2367,-60.2177,11.42,43,75,7.2,CA,1713892720
325,patacamaya,-17.2333,-67.9167,17.38,38,24,2.53,BO,1713892720
326,tamanrasset,22.785,5.5228,29.95,12,0,7.72,DZ,1713892720
327,waspan,14.7419,-83.9717,31.01,58,74,3.05,NI,1713892720
328,northam,51.0333,-4.2167,12.56,79,44,5.03,GB,1713892721
329,acapulco de juarez,16.8634,-99.8901,27.9,61,0,4.12,MX,1713892721
330,benguela,-12.5763,13.4055,27.59,81,100,1.73,AO,1713892721
331,sao vicente,-23.9631,-46.3919,34.1,49,0,2.06,BR,1713892721
332,crane,31.3974,-102.3501,25.37,38,19,5.1,US,1713892721
333,reggane,26.7158,0.1714,32.39,12,61,1.49,DZ,1713892609
334,sinabang,2.4803,96.3801,27.21,86,65,1.4,ID,1713892721
335,robore,-18.3333,-59.75,33.05,58,40,3.09,BO,1713892721
336,san andres,12.5847,-81.7006,31.01,66,40,6.17,CO,1713892722
337,ma'an,26.9775,110.7211,17.7,84,61,0.82,CN,1713892722
338,pisco,-13.7,-76.2167,23.03,73,0,4.63,PE,1713892549
339,ghat,24.9647,10.1728,31.73,13,8,6.06,LY,1713892722
340,gouyave,12.1646,-61.7296,30.43,70,20,2.57,GD,1713892722
341,zhangjiakou,40.81,114.8794,11.5,22,0,1.82,CN,1713892722
342,tharad,24.3961,71.6267,29.59,42,0,3.94,IN,1713892725
343,vilyuchinsk,52.9306,158.4028,2.92,81,31,3.97,RU,1713892725
344,okhotsk,59.3833,143.3,-3.07,90,65,1.08,RU,1713892725
345,sao felix do xingu,-6.6447,-51.995,29.17,80,45,1.77,BR,1713892725
346,cleveland,41.4995,-81.6954,19.25,39,75,9.77,US,1713892513
347,luena,-11.7833,19.9167,22.03,66,100,0.56,AO,1713892727
348,nishinoomote,30.7333,131.0,20.89,94,91,4.6,JP,1713892727
349,hosur,12.7167,77.8167,29.95,32,74,6.07,IN,1713892727
350,erdenet,49.0333,104.0833,1.5,62,100,0.55,MN,1713892727
351,nagqu,31.5,92.0,3.41,25,100,1.83,CN,1713892728
352,neiva,2.9273,-75.2819,28.93,63,78,1.21,CO,1713892394
353,margate,51.3813,1.3862,10.17,76,99,4.02,GB,1713892730
354,hilliard,40.0334,-83.1582,17.48,44,75,9.26,US,1713892715
355,'ain el melh,34.8415,4.1638,18.59,22,38,11.06,DZ,1713892730
356,nema,57.5067,50.5011,15.27,89,82,5.09,RU,1713892730
357,treinta y tres,-33.2333,-54.3833,23.46,77,46,5.62,UY,1713892730
358,kolonia,50.9333,6.95,11.64,41,0,4.63,DE,1713892525
359,port augusta,-32.5,137.7667,14.26,53,35,7.88,AU,1713892730
360,arraial do cabo,-22.9661,-42.0278,29.98,74,20,7.2,BR,1713892523
361,nar'yan-mar,67.6713,53.087,-13.27,84,8,3.58,RU,1713892732
362,maputsoe,-28.8833,27.9,17.26,37,22,1.89,LS,1713892732
363,pionerskiy,54.9508,20.2275,4.91,69,74,3.21,RU,1713892733
364,delta,5.5,6.0,29.74,70,99,2.58,NG,1713892733
365,yanjiang,30.1211,104.6481,16.83,81,100,3.03,CN,1713892556
366,ibiza,38.9088,1.433,15.68,52,0,4.12,ES,1713892440
367,vyksa,55.3175,42.1744,9.45,69,26,2.87,RU,1713892737
368,tolanaro,-25.0319,46.9987,22.57,91,99,2.8,MG,1713892739
369,kununurra,-15.7667,128.7333,19.99,88,40,0.0,AU,1713892740
370,swakopmund,-22.6833,14.5333,17.34,80,38,5.01,NA,1713892740
371,aragarcas,-15.8975,-52.2508,34.36,59,20,0.0,BR,1713892740
372,luderitz,-26.6481,15.1594,17.13,82,20,5.2,NA,1713892740
373,harnosand,62.6323,17.9379,0.0,91,100,3.52,SE,1713892741
374,camalu,30.85,-116.0667,17.03,67,77,4.16,MX,1713892741
375,weihai,37.5017,122.1136,8.4,89,100,5.56,CN,1713892742
376,waingapu,-9.6567,120.2641,25.79,87,32,4.03,ID,1713892742
377,page,36.9147,-111.4558,22.88,18,0,1.79,US,1713892743
378,minas de marcona,-15.2119,-75.1103,22.64,53,46,6.75,PE,1713892745
379,prince george,53.9166,-122.753,9.03,53,0,1.79,CA,1713892746
380,charters towers,-20.1,146.2667,18.7,79,100,3.56,AU,1713892746
381,fort st. john,56.2499,-120.8529,9.94,40,40,3.6,CA,1713892504
382,ust'-uda,54.1742,103.0304,-2.31,79,38,1.58,RU,1713892749
383,turriff,57.5384,-2.4593,9.07,69,94,7.07,GB,1713892750
384,saldanha,-33.0117,17.9442,14.33,97,95,4.0,ZA,1713892750
385,uribia,11.7139,-72.266,32.81,49,100,4.84,CO,1713892751
386,sittwe,20.15,92.9,28.55,85,0,1.8,MM,1713892752
387,madera,37.1666,-119.8343,22.51,59,14,1.96,US,1713892752
388,puerto baquerizo moreno,-0.9,-89.6,29.55,66,20,6.69,EC,1713892754
389,shenjiamen,29.9576,122.298,14.75,93,52,3.05,CN,1713892755
390,okha,53.5739,142.9478,0.14,89,96,4.92,RU,1713892755
391,yemanzhelinsk,54.7547,61.3208,7.3,62,38,6.98,RU,1713892734
392,key west,24.5557,-81.7826,24.9,71,100,7.54,US,1713892512
393,nchelenge,-9.3451,28.734,24.47,74,77,0.81,ZM,1713892758
394,riachao das neves,-11.7461,-44.91,34.36,35,11,1.32,BR,1713892758
395,essex,40.7834,-74.2163,20.13,38,40,5.14,US,1713892758
396,mahanoro,-19.9,48.8,25.16,85,1,2.59,MG,1713892759
397,kishtwar,33.3167,75.7667,12.34,79,91,1.71,IN,1713892759
398,uliastay,47.7417,96.8444,0.91,74,100,2.97,MN,1713892759
399,piton saint-leu,-21.2196,55.3151,23.06,88,0,2.06,RE,1713892549
400,ahmadnagar,19.0833,74.7333,31.26,31,68,4.72,IN,1713892759
401,baldwinsville,43.1587,-76.3327,19.51,31,79,1.79,US,1713892684
402,cole harbour,44.6724,-63.4751,8.31,54,40,5.14,CA,1713892760
403,burshtyn,49.2587,24.6278,8.63,79,100,4.68,UA,1713892760
404,baracoa,20.3467,-74.4958,28.79,61,25,3.53,CU,1713892760
405,papao,-17.75,-149.55,26.82,75,5,1.18,PF,1713892761
406,daru,-9.0763,143.2092,27.31,86,100,5.26,PG,1713892761
407,tovuz,40.9922,45.6289,18.87,39,1,2.9,AZ,1713892761
408,brush,40.2589,-103.6238,15.82,26,0,2.57,US,1713892762
409,esfarayen,37.0765,57.5101,11.81,64,100,5.0,IR,1713892762
410,bihpuriagaon,27.0333,93.9,22.83,73,10,3.61,IN,1713892763
411,santarem,-2.4431,-54.7083,30.07,74,75,4.12,BR,1713892636
412,icano,-28.9193,-65.3282,19.49,96,100,1.9,AR,1713892763
413,mukalla,14.5425,49.1242,27.75,71,0,0.74,YE,1713892763
414,tura,25.5198,90.2201,27.22,32,2,2.78,IN,1713892763
415,pankrushikha,53.8319,80.3406,-0.33,54,10,1.6,RU,1713892765
416,formosa do rio preto,-11.0483,-45.1931,33.24,39,25,2.37,BR,1713892766
417,jiaojiang,28.6803,121.4428,15.57,96,29,1.25,CN,1713892801
418,kavieng,-2.5744,150.7967,28.33,80,96,4.52,PG,1713892803
419,fale old settlement,-9.3852,-171.2468,29.4,75,59,3.23,TK,1713892804
420,polyarnyy,69.1989,33.4478,-0.43,88,96,10.7,RU,1713892804
421,karak city,31.1637,35.762,24.54,15,4,5.19,JO,1713892839
422,mancio lima,-7.6142,-72.8958,29.04,79,75,2.06,BR,1713892839
423,kill devil hills,36.0307,-75.676,18.0,51,0,2.06,US,1713892615
424,oodweyne,9.4092,45.064,26.15,61,83,6.27,SO,1713892840
425,lazaro cardenas,17.9583,-102.2,30.2,35,94,3.4,MX,1713892840
426,dubbo,-32.25,148.6167,10.07,93,74,3.09,AU,1713892840
427,terre haute,39.4667,-87.4139,18.31,53,0,6.17,US,1713892559
428,borogontsy,62.6683,131.1683,1.13,100,100,1.95,RU,1713892774
429,kailua-kona,19.6406,-155.9956,23.98,90,75,0.0,US,1713892747
430,korla,41.7597,86.1469,21.81,20,0,2.83,CN,1713892612
431,noosa heads,-26.3833,153.15,18.95,71,65,4.4,AU,1713892840
432,kaa-khem,51.6833,94.7333,2.45,47,20,6.32,RU,1713892840
433,manokwari,-0.8667,134.0833,26.77,75,100,1.18,ID,1713892841
434,kone,-21.0595,164.8658,23.45,96,84,1.14,NC,1713892841
435,san clemente del tuyu,-36.3569,-56.7235,19.43,56,46,7.79,AR,1713892841
436,bani walid,31.7566,13.9942,19.9,32,36,6.68,LY,1713892841
437,champerico,14.3,-91.9167,34.3,69,99,3.35,GT,1713892841
438,pindwara,24.8,73.0667,28.46,26,3,1.99,IN,1713892841
439,sarakhs,36.5449,61.1577,25.37,27,55,10.85,IR,1713892841
440,princeville,45.7668,-61.2985,10.42,52,0,5.66,CA,1713892689
441,barbalha,-7.3111,-39.3042,30.89,62,20,0.0,BR,1713892878
442,qujing,25.4833,103.7833,11.08,92,11,1.28,CN,1713892879
443,san jose del cabo,23.0589,-109.6977,32.0,45,0,1.34,MX,1713892879
444,ternopil,49.5559,25.6056,8.81,79,100,3.28,UA,1713892625
445,pocone,-16.2567,-56.6228,34.6,44,2,2.75,BR,1713892667
446,torzhok,57.0436,34.9622,4.59,65,100,3.7,RU,1713892880
447,puerto armuelles,8.2833,-82.8667,31.99,64,21,3.13,PA,1713892881
448,porto novo,6.4965,2.6036,29.9,67,77,4.09,BJ,1713892882
449,howard springs,-12.497,131.047,26.95,96,67,1.07,AU,1713892883
450,gaiman,-43.2897,-65.4929,12.97,42,100,10.54,AR,1713892918
451,mollendo,-17.0231,-72.0147,21.49,79,67,4.84,PE,1713892918
452,fallon,39.4735,-118.7774,22.18,28,75,4.12,US,1713892919
453,juneau,58.3019,-134.4197,7.0,87,100,0.0,US,1713892920
454,balkashino,52.5167,68.7667,10.12,43,89,7.22,KZ,1713892920
455,cannonvale,-20.2833,148.7,22.66,81,100,6.41,AU,1713892920
456,tangalle,6.024,80.7911,27.65,85,100,1.77,LK,1713892920
457,yamagata,38.2406,140.3633,9.53,90,100,2.0,JP,1713892920
458,tereze,43.9361,42.4434,15.44,74,64,1.34,RU,1713892920
459,queenstown,-31.8976,26.8753,17.04,51,67,2.03,ZA,1713892920
460,port douglas,-16.4833,145.4667,24.65,87,100,4.38,AU,1713892921
461,mulki,13.1,74.8,30.6,79,20,1.54,IN,1713892921
462,khovd,48.0056,91.6419,3.0,83,85,4.57,MN,1713892921
463,tromso,69.6496,18.957,0.01,74,100,1.03,NO,1713892921
464,lorengau,-2.0226,147.2712,28.16,80,53,2.08,PG,1713892921
465,puerto cabello,10.4731,-68.0125,36.75,93,84,3.83,VE,1713892921
466,barcelos,41.5388,-8.6151,22.73,40,0,4.35,PT,1713892818
467,smidovich,48.6,133.8167,11.98,66,100,2.82,RU,1713892922
468,nemuro,43.3236,145.575,2.59,91,53,2.7,JP,1713892662
469,dunedin,-45.8742,170.5036,13.22,58,100,3.08,NZ,1713892656
470,singkil,-7.9855,111.4161,25.28,95,100,1.52,ID,1713892923
471,xam nua,20.4197,104.0439,22.1,83,42,1.49,LA,1713892923
472,elverum,60.8819,11.5623,5.46,61,98,3.22,NO,1713892910
473,oranjestad,12.524,-70.027,31.97,58,20,8.23,AW,1713892862
474,broken hill,-31.95,141.4333,12.34,72,96,9.85,AU,1713892756
475,luganville,-15.5333,167.1667,25.99,92,7,1.68,VU,1713892925
476,namibe,-15.1961,12.1522,24.59,76,96,3.2,AO,1713892925
477,san luis de la loma,17.2706,-100.8939,31.0,38,65,3.24,MX,1713892926
478,mount isa,-20.7333,139.5,16.87,82,2,1.54,AU,1713892927
479,yeed,4.55,43.0333,27.78,71,95,3.82,SO,1713892927
480,kittila,67.6647,24.8936,-2.44,93,100,3.6,FI,1713892928
481,peniche,39.3558,-9.3811,19.5,56,0,7.23,PT,1713892928
482,amga,60.8953,131.9608,2.1,100,100,1.79,RU,1713892928
483,copiapo,-27.3667,-70.3333,16.83,40,4,2.89,CL,1713892928
484,minot air force base,48.4209,-101.3391,10.05,25,0,4.63,US,1713892928
485,kollo,13.3043,2.339,43.24,17,81,2.95,NE,1713892928
486,nizao,18.25,-70.2,32.04,62,99,5.63,DO,1713892929
487,al ghayzah,16.2079,52.176,28.85,67,0,5.87,YE,1713892930
488,midoun,33.8081,10.9923,19.92,56,0,4.49,TN,1713892930
489,tobelo,1.7284,128.0095,27.49,83,83,3.23,ID,1713892720
490,riohacha,11.5444,-72.9072,30.06,79,40,5.14,CO,1713892745
491,matthew town,20.95,-73.6667,27.67,66,16,3.98,BS,1713892930
492,amparafaravola,-17.5833,48.2167,19.85,96,13,2.59,MG,1713892930
493,makarska,43.2969,17.0178,16.33,83,66,3.56,HR,1713892930
494,bliss corner,41.6118,-70.9384,16.85,48,0,4.47,US,1713892825
495,santa ana de yacuma,-13.75,-65.4333,31.97,70,40,3.6,BO,1713892931
496,vadso,70.0744,29.7487,-1.91,86,75,6.17,NO,1713892933
497,powell river,49.8496,-124.5361,12.8,58,75,1.54,CA,1713892933
498,happy valley-goose bay,53.3168,-60.3315,1.17,51,75,8.75,CA,1713892933
499,kruisfontein,-34.0033,24.7314,14.38,87,82,1.12,ZA,1713892933
500,newport,51.5877,-2.9984,13.16,71,95,5.13,GB,1713892933
501,beya,53.0533,90.9139,-3.0,67,90,2.97,RU,1713892968
502,najran,17.4924,44.1277,27.36,26,35,6.2,SA,1713892969
503,bandarbeyla,9.4942,50.8122,28.86,78,30,3.83,SO,1713892969
504,chabahar,25.2919,60.643,27.14,66,0,3.46,IR,1713892970
505,elliot lake,46.3834,-82.6331,11.09,81,99,3.85,CA,1713892759
506,roswell,34.0232,-84.3616,22.13,42,0,5.66,US,1713892827
507,greymouth,-42.4667,171.2,11.02,92,100,1.41,NZ,1713892970
508,parkes,-33.1333,148.1833,16.86,60,97,4.8,AU,1713892970
509,new plymouth,-39.0667,174.0833,12.12,84,52,4.28,NZ,1713892970
510,anna regina,7.2644,-58.5077,28.25,76,68,5.19,GY,1713892720
511,miquelon,47.0975,-56.3814,5.0,63,11,6.78,PM,1713892974
512,namsos,64.4662,11.4957,5.95,65,75,2.57,NO,1713892975
513,carnarvon,-24.8667,113.6333,26.27,36,99,9.4,AU,1713892978
514,shakawe,-18.3667,21.85,24.13,20,11,2.03,BW,1713892978
515,kirakira,-10.4544,161.9205,26.44,80,7,1.38,SB,1713892978
516,orangeville,43.9168,-80.0997,15.32,75,100,8.68,CA,1713892979
517,ashkasham,36.6833,71.5333,2.82,76,50,1.41,AF,1713892980
518,mata-utu,-13.2816,-176.1745,29.09,76,28,2.78,WF,1713892980
519,turgen,43.4006,77.5933,12.07,52,100,2.33,KZ,1713892980
520,grand falls-windsor,48.9332,-55.6649,8.06,35,1,3.58,CA,1713892984
521,padang,-0.9492,100.3543,27.03,93,100,2.71,ID,1713892874
522,flying fish cove,-10.4217,105.6791,26.82,89,75,4.12,CX,1713892985
523,meadow lake,34.8014,-106.5436,25.62,19,2,3.56,US,1713892985
524,nacala,-14.5428,40.6728,25.36,83,74,3.21,MZ,1713892986
525,chapayevsk,52.9771,49.7086,15.4,90,100,6.78,RU,1713892987
526,undurkhaan,47.3194,110.6556,2.83,87,16,0.39,MN,1713892987
527,port moresby,-9.4431,147.1797,25.69,90,100,2.46,PG,1713892987
528,el haouaria,37.05,11.0144,17.01,57,3,6.88,TN,1713892987
529,berriane,32.8265,3.7669,26.45,14,2,6.62,DZ,1713892987
530,az zuwaytinah,30.9522,20.1202,18.59,79,69,11.48,LY,1713892989
531,mesquite,32.7668,-96.5992,24.23,64,40,7.2,US,1713892892
532,wenchang,30.904,118.4887,15.26,80,96,0.96,CN,1713892989
533,betio village,1.358,172.9211,28.02,78,29,7.51,KI,1713892989
534,sao joao del rei,-21.1356,-44.2617,25.49,44,2,3.24,BR,1713892989
535,kidatu,-7.6992,36.9572,22.76,96,100,0.18,TZ,1713892989
536,severobaykal'sk,55.65,109.3167,-0.27,89,96,1.33,RU,1713892989
537,dalandzadgad,43.5708,104.425,14.44,21,2,9.66,MN,1713892991
538,mtwara,-10.2667,40.1833,25.46,91,99,3.91,TZ,1713892992
539,ormara,25.2088,64.6357,26.29,83,1,7.6,PK,1713892992
540,nicoya,10.1483,-85.452,35.54,32,99,3.72,CR,1713892978
541,urumqi,43.801,87.6005,18.53,30,0,1.0,CN,1713892993
542,east end,34.5507,-92.341,23.16,52,2,0.89,US,1713893028
543,lerwick,60.1545,-1.1494,7.0,61,46,9.2,GB,1713893028
544,orkney,-26.9802,26.6727,23.61,24,1,2.46,ZA,1713893028
545,launceston,-41.45,147.1667,13.42,94,100,1.54,AU,1713893029
546,debila,33.5167,6.95,27.04,19,20,4.12,DZ,1713893029
547,caninde,-4.3589,-39.3117,29.16,71,100,1.32,BR,1713893029
548,aldinga beach,-35.2793,138.4604,13.9,54,17,5.12,AU,1713893029
549,burang,30.25,81.1667,-2.08,79,61,2.27,CN,1713893029
550,tralee,52.2704,-9.7026,14.14,72,75,3.6,IE,1713893029
551,lepsy,46.235,78.9456,15.65,27,49,5.33,KZ,1713893029
