City_ID,City,Lat,Lng,Max Temp,Humidity,Cloudiness,Wind Speed,Country,Date
0,sitka,57.0531,-135.33,6.94,65,20,5.14,US,1712871286
1,waitangi,-43.9535,-176.5597,17.12,94,100,5.81,NZ,1712871229
2,qaqortoq,60.7167,-46.0333,-6.33,87,63,1.01,GL,1712871286
3,inyati,-19.6756,28.8469,14.82,83,85,6.35,ZW,1712871286
4,kolonia,50.9333,6.95,15.46,80,100,0.51,DE,1712871163
5,nacala,-14.5428,40.6728,24.53,95,86,3.11,MZ,1712871286
6,la passe,45.5549,-0.8967,14.13,93,40,3.26,FR,1712871286
7,fada,9.5667,8.3,26.92,14,23,0.36,NG,1712871286
8,hithadhoo,-0.6,73.0833,28.55,74,100,2.76,MV,1712871286
9,kirensk,57.7853,108.1119,-2.24,95,100,0.89,RU,1712871287
10,papatowai,-46.5619,169.4708,7.65,86,100,2.2,NZ,1712871287
11,invercargill,-46.4,168.35,8.9,88,100,0.45,NZ,1712871219
12,klyuchi,52.2667,79.1667,-1.93,70,95,3.96,RU,1712871287
13,edinburgh of the seven seas,-37.0676,-12.3116,18.45,95,76,7.38,SH,1712871287
14,hawaiian paradise park,19.5933,-154.9731,23.91,95,100,2.06,US,1712871081
15,ribeira grande,38.5167,-28.7,15.99,93,97,1.34,PT,1712871287
16,bethel,41.3712,-73.414,15.27,89,100,3.09,US,1712871096
17,port elizabeth,-33.918,25.5701,15.05,80,20,4.63,ZA,1712871287
18,tomatlan,19.9333,-105.25,30.73,36,15,3.77,MX,1712871271
19,lensk,60.7253,114.9278,-19.52,99,97,1.47,RU,1712871287
20,port-aux-francais,-49.35,70.2167,5.9,89,100,3.34,TF,1712871288
21,hammerfest,70.6634,23.6821,1.25,86,75,5.14,NO,1712871288
22,adamstown,-25.066,-130.1015,21.05,54,3,5.97,PN,1712871288
23,levuka,50.1834,-105.4011,10.9,22,20,4.12,CA,1712871288
24,port mathurin,-19.6833,63.4167,26.71,77,4,5.04,MU,1712871288
25,port lincoln,-34.7333,135.8667,14.74,63,100,3.14,AU,1712871288
26,calama,-22.4667,-68.9333,19.96,22,80,5.14,CL,1712871141
27,ushuaia,-54.8,-68.3,7.81,61,0,11.32,AR,1712871288
28,arno,60.1167,18.6333,6.55,86,26,5.34,SE,1712871169
29,albany,42.6001,-73.9662,15.33,78,100,1.34,US,1712871253
30,riohacha,11.5444,-72.9072,31.06,70,0,5.66,CO,1712871243
31,genteng,-8.3667,114.15,22.17,98,100,1.37,ID,1712871289
32,port macquarie,-31.4333,152.9167,16.05,82,3,2.8,AU,1712870778
33,pontotoc,34.2479,-88.9987,18.19,77,100,7.99,US,1712871289
34,pedernales,18.0384,-71.744,29.04,64,1,0.23,DO,1712871289
35,avarua,-21.2078,-159.775,28.03,83,75,5.14,CK,1712871289
36,bilibino,68.0546,166.4372,-13.38,86,100,1.52,RU,1712871232
37,lihue,21.9789,-159.3672,26.58,82,100,4.12,US,1712871289
38,chegdomyn,51.1167,133.0167,-0.14,76,26,0.49,RU,1712871289
39,ilulissat,69.2167,-51.1,-5.99,79,100,1.54,GL,1712871289
40,olonkinbyen,70.9221,-8.7187,-8.43,88,100,6.79,SJ,1712871289
41,male,4.1748,73.5089,27.97,100,75,3.6,MV,1712871289
42,aasiaat,68.7098,-52.8699,-5.9,91,99,1.94,GL,1712871193
43,sereflikochisar,38.9393,33.5386,12.51,72,65,3.52,TR,1712871289
44,sabang,5.8933,95.3214,29.53,73,100,6.33,ID,1712871289
45,punta arenas,-53.15,-70.9167,9.06,61,0,9.77,CL,1712871225
46,grytviken,-54.2811,-36.5092,-1.31,70,13,4.31,GS,1712871227
47,sao felix do xingu,-6.6447,-51.995,24.65,93,81,0.36,BR,1712871289
48,iqaluit,63.7506,-68.5145,-2.15,68,100,2.57,CA,1712871221
49,holualoa,19.6228,-155.9522,24.93,80,100,2.57,US,1712871279
50,san patricio,28.017,-97.5169,31.97,21,0,5.13,US,1712871290
51,young,-32.6833,-57.6333,17.34,70,1,4.29,UY,1712870992
52,viedma,-40.8135,-62.9967,13.74,48,88,2.56,AR,1712871202
53,keelung,25.1283,121.7419,23.94,89,90,2.08,TW,1712871290
54,talnakh,69.4865,88.3972,-26.0,97,96,3.45,RU,1712871236
55,hermanus,-34.4187,19.2345,13.22,72,19,7.87,ZA,1712871032
56,barhi,23.9,80.8,24.94,56,74,2.14,IN,1712871290
57,jamestown,42.097,-79.2353,17.77,96,100,4.92,US,1712870919
58,blackmans bay,-43.0167,147.3167,11.07,86,82,0.89,AU,1712871290
59,tiksi,71.6872,128.8694,-26.88,95,22,5.38,RU,1712871290
60,savanna-la-mar,18.219,-78.1332,28.97,77,81,1.55,JM,1712871290
61,alofi,-19.0595,-169.9187,29.94,70,75,2.57,NU,1712871290
62,northam,51.0333,-4.2167,11.45,96,70,6.74,GB,1712871290
63,tazovsky,67.4667,78.7,-22.54,95,53,6.22,RU,1712871059
64,anadyr,64.75,177.4833,-14.72,77,0,4.92,RU,1712871290
65,muisne,0.6,-80.0333,27.24,75,54,2.72,EC,1712871290
66,udachny,66.4167,112.4,-28.08,100,100,2.06,RU,1712871290
67,ancud,-41.8697,-73.8203,12.04,68,0,1.83,CL,1712871107
68,wailua homesteads,22.0669,-159.378,26.24,85,100,4.12,US,1712871290
69,montrose,38.4166,-108.2673,12.83,23,0,2.83,US,1712871178
70,nikolayevsk-on-amure,53.1406,140.73,0.12,96,88,1.79,RU,1712871290
71,sterling,39.0062,-77.4286,19.58,84,100,7.2,US,1712871053
72,rianxo,42.6498,-8.8176,20.21,81,100,1.69,ES,1712871290
73,yellowknife,62.456,-114.3525,2.29,64,40,5.66,CA,1712871291
74,karratha,-20.7377,116.8463,26.89,72,51,3.07,AU,1712870999
75,meadow lake,34.8014,-106.5436,22.6,13,0,2.89,US,1712871291
76,embrun,44.5639,6.4953,10.15,71,0,2.85,FR,1712871291
77,mweka,-4.85,21.5667,22.55,85,100,0.61,CD,1712871291
78,itoman,26.1247,127.6694,20.43,90,75,0.51,JP,1712871291
79,san pedro pochutla,15.7333,-96.4667,32.84,55,88,3.92,MX,1712871291
80,haiku-pauwela,20.9219,-156.3051,26.81,67,20,4.47,US,1712871291
81,puerto cabezas,14.0351,-83.3888,30.98,79,40,4.12,NI,1712871015
82,isafjordur,66.0755,-23.124,-2.81,94,100,13.94,IS,1712871291
83,jupiter,26.9342,-80.0942,32.01,68,75,9.77,US,1712871032
84,puerto natales,-51.7236,-72.4875,8.25,61,0,5.66,CL,1712871253
85,tateyama,34.9833,139.8667,15.05,86,98,4.87,JP,1712871291
86,grand falls-windsor,48.9332,-55.6649,3.99,62,3,2.56,CA,1712871291
87,kankakee,41.15,-87.8667,15.84,64,75,5.66,US,1712871253
88,al jaradiyah,16.5795,42.9124,29.72,71,14,3.07,SA,1712871291
89,maumere,-8.6199,122.2111,25.31,84,84,2.26,ID,1712871050
90,bredasdorp,-34.5322,20.0403,13.91,71,3,4.45,ZA,1712871256
91,nizhnevartovsk,60.9344,76.5531,-13.99,61,0,4.0,RU,1712871010
92,badger,64.8,-147.5333,6.14,51,75,3.09,US,1712871223
93,kapuskasing,49.4169,-82.4331,16.05,39,100,4.63,CA,1712871292
94,sao joao da barra,-21.6403,-41.0511,26.05,85,10,3.01,BR,1712871292
95,stanley,54.868,-1.6985,12.93,94,75,2.57,GB,1712871054
96,jolo,6.05,121.0167,25.25,86,95,0.61,PH,1712871292
97,arraial do cabo,-22.9661,-42.0278,25.98,83,40,2.57,BR,1712871249
98,carnarvon,-24.8667,113.6333,21.36,66,93,9.94,AU,1712871090
99,el granada,37.5027,-122.4694,30.51,68,0,8.23,US,1712871292
100,magistral'nyy,56.1725,107.4458,-5.35,98,88,0.8,RU,1712871292
101,kavaratti,10.5669,72.642,29.06,67,1,1.31,IN,1712871292
102,nemuro,43.3236,145.575,4.53,96,100,6.5,JP,1712871270
103,petropavlovsk-kamchatsky,53.0452,158.6483,1.33,71,0,11.62,RU,1712871073
104,codrington,-38.2667,141.9667,13.9,66,98,2.83,AU,1712871292
105,colonia,50.9333,6.95,15.46,80,100,0.51,DE,1712871163
106,neyshabur,36.2133,58.7958,15.25,50,32,0.36,IR,1712871292
107,meulaboh,4.1363,96.1285,25.61,90,98,1.4,ID,1712871293
108,syzran',53.1585,48.4681,14.58,81,100,4.26,RU,1712871293
109,massenya,11.4039,16.1705,33.13,9,91,4.59,TD,1712871293
110,utrik,11.2278,169.8474,26.66,75,96,9.3,MH,1712871274
111,iskateley,67.6803,53.1512,1.68,100,100,7.6,RU,1712871082
112,saipan,15.1355,145.701,26.39,89,40,6.69,MP,1712871293
113,konarka,19.9,86.1167,23.22,50,23,1.95,IN,1712871293
114,tura,25.5198,90.2201,23.81,39,99,1.28,IN,1712871293
115,noumea,-22.2763,166.4572,25.56,99,100,0.76,NC,1712870927
116,harper,4.375,-7.7169,26.67,83,100,2.8,LR,1712871293
117,east ballina,-28.8667,153.5833,17.11,89,79,5.1,AU,1712871292
118,kingston,17.997,-76.7936,30.65,70,20,10.29,JM,1712871278
119,selfoss,63.9331,-20.9971,3.36,98,100,3.04,IS,1712871293
120,beyneu,45.3167,55.2,10.76,57,0,4.75,KZ,1712871276
121,whitehorse,60.7161,-135.0538,6.72,38,40,3.09,CA,1712871066
122,pisco,-13.7,-76.2167,26.03,65,0,5.66,PE,1712871008
123,arawa,-6.2132,155.5367,29.0,75,83,0.63,PG,1712871293
124,cabo san lucas,22.8909,-109.9124,28.67,33,20,5.66,MX,1712870768
125,sinop,41.7711,34.8709,9.7,91,33,1.49,TR,1712871293
126,qeshm,26.9581,56.2719,25.94,74,86,7.81,IR,1712871159
127,manokwari,-0.8667,134.0833,26.37,79,94,1.07,ID,1712871294
128,haparanda,65.8355,24.1368,-0.97,97,100,1.38,SE,1712871294
129,tolanaro,-25.0319,46.9987,23.04,88,40,2.06,MG,1712871294
130,sumenep,-7.0167,113.8667,25.04,88,98,1.92,ID,1712871294
131,bishkul,54.7803,69.1033,0.39,80,58,3.65,KZ,1712871294
132,dompu,-8.5356,118.4622,23.22,96,93,0.92,ID,1712871294
133,tralee,52.2704,-9.7026,11.78,97,100,2.59,IE,1712871271
134,kuqa,41.7278,82.9364,15.42,24,17,2.15,CN,1712871294
135,hamilton,39.1834,-84.5333,18.76,93,75,25.03,US,1712871277
136,pittsfield,42.4501,-73.2454,15.27,82,100,3.6,US,1712871049
137,ryotsu-minato,38.0833,138.4333,12.5,59,94,1.41,JP,1712871294
138,el nido,11.1858,119.3956,26.64,79,73,3.09,PH,1712871294
139,sarvar,47.2539,16.9352,11.59,71,93,3.33,HU,1712871294
140,lebu,-37.6167,-73.65,13.17,77,1,2.73,CL,1712871294
141,cabedelo,-6.9811,-34.8339,29.37,80,100,4.5,BR,1712871050
142,georgetown,5.4112,100.3354,28.3,85,20,1.54,MY,1712871203
143,vorgashor,67.5833,63.95,-9.55,87,100,10.83,RU,1712871088
144,bontang,0.1333,117.5,26.4,86,88,4.34,ID,1712871295
145,baiyin,36.5583,104.2081,10.86,28,3,1.32,CN,1712871274
146,riachao,-7.3619,-46.6172,25.2,86,78,1.17,BR,1712871295
147,ban pong,13.8163,99.8774,28.39,62,48,1.91,TH,1712871295
148,troitsko-pechorsk,62.7084,56.1964,3.72,99,100,6.26,RU,1712871295
149,novomoskovs'k,48.6167,35.2,20.25,59,98,2.52,UA,1712871295
150,crane,31.3974,-102.3501,26.53,14,0,5.34,US,1712871223
151,sisimiut,66.9395,-53.6735,-4.96,88,95,1.14,GL,1712871137
152,tshabong,-26.05,22.45,18.58,33,0,4.2,BW,1712871295
153,machico,32.7,-16.7667,23.96,68,0,7.2,PT,1712871295
154,kegeyli shahar,42.7767,59.6078,15.05,77,94,1.16,UZ,1712871199
155,sao desiderio,-12.3633,-44.9733,26.8,65,72,1.95,BR,1712871295
156,vredendal,-31.6683,18.5012,21.25,27,8,7.17,ZA,1712871295
157,chifeng,42.2683,118.9636,13.3,63,85,2.82,CN,1712871295
158,christchurch,-43.5333,172.6333,11.06,96,100,8.23,NZ,1712871156
159,castillos,-34.1667,-53.8333,16.73,56,99,3.11,UY,1712871199
160,yarkovo,57.4028,67.0786,2.57,72,100,6.18,RU,1712871296
161,baymak,52.5933,58.3225,7.64,75,98,3.87,RU,1712871296
162,hastings,50.8552,0.5729,13.22,96,87,5.77,GB,1712871296
163,tsetserleg,47.475,101.4542,1.64,48,95,2.26,MN,1712871296
164,urengoy,65.9667,78.3667,-20.89,94,100,6.31,RU,1712871296
165,margaret river,-33.95,115.0667,11.57,88,5,5.25,AU,1712871034
166,kodiak,57.79,-152.4072,0.73,100,100,0.0,US,1712871121
167,santa cruz cabralia,-16.2781,-39.0247,28.13,78,40,3.6,BR,1712871296
168,xining,36.6167,101.7667,7.96,33,100,0.67,CN,1712871296
169,altai,46.3722,96.2583,0.25,63,44,6.64,MN,1712871226
170,tamanrasset,22.785,5.5228,25.95,8,0,5.14,DZ,1712871296
171,laramie,41.3114,-105.5911,13.21,16,0,4.63,US,1712871207
172,kill devil hills,36.0307,-75.676,21.0,85,75,7.2,US,1712871296
173,pskov,57.8136,28.3496,10.95,65,75,8.05,RU,1712871203
174,ostersund,63.1792,14.6357,3.67,100,75,1.54,SE,1712871297
175,road town,18.4167,-64.6167,26.02,83,40,4.12,VG,1712871023
176,hadibu,12.65,54.0333,27.24,78,96,2.16,YE,1712871297
177,thompson,55.7435,-97.8558,1.09,75,100,5.66,CA,1712871297
178,touros,-5.1989,-35.4608,27.09,81,99,3.24,BR,1712871297
179,liwale,-9.7667,37.9333,22.22,97,100,0.98,TZ,1712871297
180,kananga,-5.8958,22.4178,23.47,88,100,1.36,CD,1712871297
181,hammonton,39.6365,-74.8024,19.9,94,100,7.49,US,1712871022
182,pacific grove,36.6177,-121.9166,26.42,75,0,4.92,US,1712871082
183,nova sintra,14.8667,-24.7167,22.65,75,2,7.91,CV,1712871297
184,larache,35.1932,-6.1557,16.44,61,35,4.85,MA,1712871297
185,tibu,8.639,-72.7358,36.77,33,7,1.28,CO,1712871297
186,keflavik,64.0049,-22.5624,4.95,87,75,6.69,IS,1712871102
187,tselinnoye,53.0833,85.6667,-2.45,92,100,4.13,RU,1712871297
188,kargasok,59.0556,80.8572,-13.91,93,11,1.79,RU,1712871275
189,anqing,30.5092,117.0506,18.15,96,100,0.49,CN,1712871298
190,coquimbo,-29.9533,-71.3436,14.85,82,100,1.54,CL,1712871183
191,boa vista,2.8197,-60.6733,34.99,38,40,5.66,BR,1712871298
192,malango,-2.9627,119.9001,20.19,100,100,0.42,ID,1712871298
193,koster,-25.863,26.8976,12.51,53,0,0.81,ZA,1712871298
194,porto novo,6.4965,2.6036,27.16,79,73,4.68,BJ,1712871091
195,uyskoye,54.3775,60.0047,7.72,73,100,7.05,RU,1712871298
196,lata,40.1629,-8.3327,18.37,84,96,1.14,PT,1712871299
197,constantia,44.1833,28.65,14.38,59,16,2.87,RO,1712871122
198,kendari,-3.945,122.4989,23.78,97,90,1.0,ID,1712871299
199,kingscliff,-28.2667,153.5667,20.98,77,47,4.12,AU,1712871299
200,arzgir,45.3728,44.2206,14.07,58,47,1.94,RU,1712871299
201,dali,25.7,100.1833,12.0,65,3,1.78,CN,1712871299
202,pimentel,-6.8367,-79.9342,27.16,61,0,9.77,PE,1712871299
203,severo-yeniseyskiy,60.3725,93.0408,-19.68,99,97,0.45,RU,1712871180
204,akjoujt,19.6969,-14.4164,32.66,13,1,5.08,MR,1712871299
205,puerto baquerizo moreno,-0.9,-89.6,28.55,74,40,5.14,EC,1712871299
206,cadale,2.7603,46.3222,29.1,73,29,5.44,SO,1712871299
207,carmarthen,51.8555,-4.3054,11.08,100,100,11.32,GB,1712871299
208,opuwo,-18.0607,13.84,21.71,47,45,1.55,NA,1712871299
209,kavieng,-2.5744,150.7967,27.37,80,99,1.63,PG,1712871299
210,plettenberg bay,-34.0527,23.3716,13.38,70,17,1.5,ZA,1712871299
211,talakan,50.3167,130.3667,4.92,64,92,2.68,RU,1712871299
212,al jawf,29.5,38.75,19.17,36,0,3.1,SA,1712871224
213,okhotsk,59.3833,143.3,-3.87,93,89,2.16,RU,1712871300
214,chibougamau,49.9168,-74.3659,12.79,54,75,4.63,CA,1712871300
215,sinabang,2.4803,96.3801,26.45,85,98,1.6,ID,1712871300
216,t'aebaek,37.1759,128.9889,9.36,76,0,1.04,KR,1712871300
217,moose jaw,50.4001,-105.5344,11.15,20,20,4.12,CA,1712871237
218,ayr,55.4627,-4.6339,12.74,94,75,4.12,GB,1712871300
219,chenzhou,25.8,113.0333,21.67,97,86,0.49,CN,1712871300
220,lompoc,34.6391,-120.4579,22.69,71,0,5.66,US,1712871300
221,st. john's,47.5649,-52.7093,3.66,72,20,3.6,CA,1712871299
222,archangelos,36.2149,28.1149,17.95,75,13,2.02,GR,1712871301
223,cozumel,20.5083,-86.9458,31.04,62,100,1.54,MX,1712871145
224,salinas,36.6777,-121.6555,30.31,66,0,5.66,US,1712871286
225,kogota,38.55,141.05,9.93,90,100,1.01,JP,1712871301
226,antsiranana,-12.2787,49.2917,25.07,91,36,1.69,MG,1712871289
227,quellon,-43.1167,-73.6167,10.37,70,0,2.34,CL,1712871302
228,mangrol,21.1167,70.1167,24.74,85,33,5.12,IN,1712871302
229,kamloops,50.6665,-120.3192,14.3,46,100,5.66,CA,1712871238
230,kirakira,-10.4544,161.9205,29.03,70,100,1.49,SB,1712871302
231,puerto ayora,-0.7393,-90.3518,28.98,95,48,4.02,EC,1712871302
232,kyzyl,51.7,94.45,2.23,92,90,4.02,RU,1712871302
233,new norfolk,-42.7826,147.0587,11.72,84,91,1.18,AU,1712871299
234,tamandare,-8.7597,-35.1047,27.2,81,54,3.1,BR,1712871303
235,zhangjiakou,40.81,114.8794,13.32,61,64,0.65,CN,1712871303
236,west island,-12.1568,96.8225,25.99,89,40,2.57,CC,1712871303
237,luderitz,-26.6481,15.1594,21.98,46,0,2.0,NA,1712871303
238,atafu village,-8.5421,-172.5159,29.5,76,47,3.35,TK,1712871269
239,acapulco de juarez,16.8634,-99.8901,28.9,70,0,5.14,MX,1712871101
240,vilyuchinsk,52.9306,158.4028,3.15,76,5,3.7,RU,1712871303
241,papao,-17.75,-149.55,30.82,85,95,8.23,PF,1712871303
242,cuamba,-14.8031,36.5372,21.22,93,99,3.04,MZ,1712871303
243,kruisfontein,-34.0033,24.7314,13.82,75,4,3.05,ZA,1712871238
244,tsiombe,-25.3,45.4833,20.38,87,93,2.11,MG,1712871304
245,east london,-33.0153,27.9116,15.82,63,44,6.96,ZA,1712871026
246,tra vinh,9.9347,106.3453,27.37,78,100,4.22,VN,1712871304
247,lonavla,18.75,73.4167,23.37,38,25,0.33,IN,1712871304
248,nadi,-17.8,177.4167,29.0,70,20,1.54,FJ,1712871304
249,kurumkan,54.3,110.3,3.4,79,100,2.24,RU,1712871305
250,johi,26.6921,67.6133,30.61,28,56,3.51,PK,1712871305
251,susuman,62.7833,148.1667,-13.47,97,99,1.26,RU,1712871305
252,kone,-21.0595,164.8658,23.4,86,100,0.49,NC,1712871305
253,tshikapa,-6.4167,20.8,24.42,82,100,0.58,CD,1712871305
254,dudinka,69.4058,86.1778,-25.77,100,85,3.6,RU,1712871305
255,valentin gomez farias,28.2167,-106.5833,24.5,9,41,5.83,MX,1712871306
256,ihosy,-22.4,46.1167,18.33,86,96,2.14,MG,1712871306
257,rio grande,-32.035,-52.0986,20.06,61,100,6.77,BR,1712871278
258,egilsstadir,65.2653,-14.3948,-0.05,100,100,1.03,IS,1712871306
259,sligo,54.2697,-8.4694,12.05,97,100,4.88,IE,1712871306
260,college,64.8569,-147.8028,6.18,50,100,3.09,US,1712871306
261,broome,42.2506,-75.833,17.48,82,100,6.17,US,1712871306
262,villa regina,-39.1,-67.0667,13.88,30,100,5.08,AR,1712871307
263,dalandzadgad,43.5708,104.425,8.84,37,6,3.62,MN,1712871307
264,dunedin,-45.8742,170.5036,8.78,94,100,0.89,NZ,1712871086
265,korla,41.7597,86.1469,15.13,30,50,1.8,CN,1712871307
266,taro,-8.3862,115.28,23.0,99,91,0.38,ID,1712871307
267,ujae,8.9322,165.7642,27.42,78,100,9.15,MH,1712871307
268,port douglas,-16.4833,145.4667,24.27,69,52,3.2,AU,1712871307
269,lushun,38.8,121.2667,10.12,76,0,3.14,CN,1712871307
270,island harbour,50.724,-1.2758,12.04,91,92,3.13,GB,1712871307
271,el calafate,-50.3408,-72.2768,7.37,60,3,2.33,AR,1712871307
272,chonchi,-42.6128,-73.8092,16.56,69,0,0.63,CL,1712871104
273,mejit,10.2753,170.8646,26.79,79,100,8.94,MH,1712871308
274,alice springs,-23.7,133.8833,11.79,60,3,2.57,AU,1712871308
275,stadtroda,50.85,11.7333,11.93,77,58,1.3,DE,1712871308
276,san mariano,7.5,126.0,21.44,81,90,1.21,PH,1712871308
277,paros,37.0833,25.15,19.06,72,54,4.63,GR,1712871308
278,luwingu,-10.2621,29.9271,17.64,99,100,1.96,ZM,1712871256
279,bel ombre,-4.6167,55.4167,25.91,89,20,2.06,SC,1712871308
280,carutapera,-1.195,-46.02,26.31,89,64,2.59,BR,1712871308
281,sao jose da coroa grande,-8.8978,-35.1478,27.62,79,58,3.44,BR,1712871309
282,smidovich,48.6,133.8167,8.9,76,99,0.33,RU,1712871309
283,zeya,53.75,127.2667,0.27,79,100,2.52,RU,1712871309
284,ola,59.5833,151.2833,-7.7,85,41,1.25,RU,1712871309
285,bhanjanagar,19.9333,84.5833,26.28,47,85,1.03,IN,1712871309
286,okha,53.5739,142.9478,-1.53,96,75,4.02,RU,1712871309
287,salalah,17.0151,54.0924,28.05,74,40,2.06,OM,1712871309
288,port alfred,-33.5906,26.891,14.54,82,15,2.24,ZA,1712871041
289,hasaki,35.7333,140.8333,14.05,79,100,5.81,JP,1712871309
290,yangiobod,41.1192,70.0941,10.56,57,100,3.23,UZ,1712871310
291,sodra sandby,56.5667,16.6167,12.92,94,100,6.3,SE,1712871310
292,taulaga,-11.0553,-171.0883,29.93,74,33,4.08,AS,1712871310
293,bandarbeyla,9.4942,50.8122,27.9,84,36,2.7,SO,1712871310
294,swift current,50.2834,-107.8014,11.45,19,0,2.57,CA,1712871310
295,guerrero negro,27.9769,-114.0611,23.91,39,66,5.16,MX,1712871082
296,siwa oasis,29.2041,25.5195,20.64,40,0,4.99,EG,1712871252
297,aldinga beach,-35.2793,138.4604,14.26,75,2,1.5,AU,1712871310
298,la sarre,48.8002,-79.1996,11.62,67,100,4.17,CA,1712871217
299,jiwani,25.05,61.7417,25.64,86,5,4.03,PK,1712871310
300,vila franca do campo,37.7167,-25.4333,18.27,99,25,1.51,PT,1712871310
301,cowansville,45.2001,-72.7491,13.89,85,98,4.63,CA,1712871311
302,sola,-13.8833,167.55,29.37,84,75,1.03,VU,1712871311
303,brookings,44.3114,-96.7984,12.32,54,40,11.83,US,1712871014
304,souk ahras,36.2864,7.9511,6.66,87,58,1.53,DZ,1712871311
305,vicksburg,32.3526,-90.8779,23.85,31,20,7.72,US,1712871014
306,forster,-32.1667,152.5167,12.99,100,23,2.71,AU,1712871311
307,inirida,3.8653,-67.9239,33.06,53,89,0.84,CO,1712871311
308,ar rahad,12.7167,30.65,26.16,11,24,4.39,SD,1712871311
309,aldan,58.6031,125.3894,-2.08,98,99,2.31,RU,1712871311
310,howard springs,-12.497,131.047,22.95,86,100,2.47,AU,1712871311
311,margate,51.3813,1.3862,12.71,89,62,3.13,GB,1712871111
312,komsomol'skiy,43.9783,46.6985,12.11,56,43,2.18,RU,1712871311
313,flying fish cove,-10.4217,105.6791,26.82,83,75,4.12,CX,1712871311
314,natal,-5.795,-35.2094,28.36,83,20,3.6,BR,1712871075
315,pochinki,54.6988,44.8668,16.02,78,99,2.54,RU,1712871311
316,tughyl,47.7252,84.2063,2.28,98,100,4.5,KZ,1712871312
317,chabahar,25.2919,60.643,26.77,67,53,3.44,IR,1712871312
318,pervomayskoye,43.919,46.7102,11.95,56,42,2.2,RU,1712871312
319,mahibadhoo,3.7833,72.9667,29.25,74,30,2.62,MV,1712871312
320,palora,-1.7,-77.9333,28.06,91,86,0.43,EC,1712871312
321,qarazhal,48.0078,70.7903,0.16,79,4,5.59,KZ,1712871312
322,kapa'a,22.0752,-159.319,26.99,85,100,4.12,US,1712871312
323,cacoal,-11.4386,-61.4472,25.82,93,90,0.57,BR,1712871312
324,geraldton,-28.7667,114.6,19.23,68,2,1.54,AU,1712871100
325,ta`u,-14.2336,-169.5144,29.03,78,5,4.44,AS,1712871312
326,heihe,50.2441,127.4902,7.47,66,97,3.69,CN,1712871312
327,guangyuan,32.442,105.823,17.04,84,84,0.9,CN,1712871312
328,tofol,5.3248,163.0078,27.15,85,100,7.47,FM,1712871312
329,novoul'yanovsk,54.1496,48.3891,17.36,52,100,2.87,RU,1712871312
330,tocopilla,-22.092,-70.1979,20.8,77,100,2.85,CL,1712871088
331,katsuura,35.1333,140.3,14.61,87,100,6.13,JP,1712871312
332,namie,37.4833,141.0,9.19,91,100,0.97,JP,1712871110
333,targu secuiesc,46.0,26.1333,11.78,90,18,2.33,RO,1712871312
334,gundlupet,11.8,76.6833,22.34,73,23,1.67,IN,1712871312
335,newman,37.3138,-121.0208,29.6,48,21,1.34,US,1712871312
336,beatrice,40.2681,-96.747,17.32,20,0,11.83,US,1712871313
337,kununurra,-15.7667,128.7333,16.99,88,39,1.54,AU,1712871207
338,irymple,-34.25,142.1667,12.02,70,2,3.48,AU,1712871313
339,tanout,14.9709,8.8879,30.42,9,99,4.56,NE,1712871313
340,leo,11.1,-2.1,33.89,29,99,1.39,BF,1712871313
341,akureyri,65.6835,-18.0878,1.96,80,75,4.12,IS,1712871288
342,tataouine,32.9297,10.4518,11.87,94,100,7.6,TN,1712871313
343,padang,-0.9492,100.3543,27.03,81,87,1.76,ID,1712871313
344,palmer,42.1584,-72.3287,14.92,81,100,3.09,US,1712871135
345,longyearbyen,78.2186,15.6401,-15.09,61,0,3.6,SJ,1712871313
346,punta del este,-34.9667,-54.95,17.06,71,20,4.12,UY,1712871107
347,galle,6.0367,80.217,26.07,85,100,3.95,LK,1712871313
348,tumpat,6.1978,102.171,27.99,83,20,1.54,MY,1712871313
349,nagram,26.6167,81.1333,23.03,21,9,2.59,IN,1712871313
350,xinmin,41.9908,122.8253,12.62,64,78,8.56,CN,1712871313
351,wau,7.7029,27.9953,29.91,15,24,2.25,SS,1712871313
352,gijang,35.2442,129.2139,8.85,88,76,1.77,KR,1712871313
353,le port,-20.9373,55.2919,26.0,86,73,3.24,RE,1712871313
354,midleton,51.9153,-8.1805,11.88,94,100,6.77,IE,1712871313
355,vadso,70.0744,29.7487,1.49,80,75,7.72,NO,1712871167
356,nantucket,41.2835,-70.0995,12.3,95,100,7.2,US,1712871147
357,kanchanaburi,14.6333,99.1,26.12,77,34,1.44,TH,1712871313
358,kittila,67.6647,24.8936,2.08,80,40,1.54,FI,1712871314
359,redencao,-4.2258,-38.7306,24.21,96,88,0.97,BR,1712871314
360,sault ste. marie,46.5168,-84.3333,13.16,54,100,3.09,CA,1712871314
361,tynda,55.1667,124.7167,-4.55,99,100,1.54,RU,1712871314
362,solnechnyy,50.7214,136.6319,3.91,55,10,1.95,RU,1712871314
363,crucecita,-28.95,-58.9833,17.46,83,100,5.65,AR,1712871314
364,puerto aysen,-45.4,-72.7,8.93,89,0,0.74,CL,1712871093
365,ha giang,22.8333,104.9833,22.78,97,99,0.6,VN,1712871314
366,gebeit,21.0667,36.3167,19.74,47,9,1.99,SD,1712871314
367,qarqaraly,49.4058,75.4742,-4.02,79,96,5.39,KZ,1712871314
368,fisterra,42.9049,-9.2629,15.97,72,100,2.97,ES,1712871314
369,khorixas,-20.3667,14.9667,25.51,39,75,2.71,NA,1712871314
370,aswan,24.0934,32.907,24.61,20,0,2.06,EG,1712871314
371,tuy hoa,13.0833,109.3,23.7,96,100,1.37,VN,1712871314
372,torchiarolo,40.4842,18.0525,16.87,81,100,7.64,IT,1712871149
373,yakymivka,46.6897,35.1536,16.13,56,0,0.32,UA,1712871314
374,san fernando de apure,7.8878,-67.4724,37.87,24,10,3.47,VE,1712871072
375,progreso,21.2833,-89.6667,30.06,70,29,7.12,MX,1712871032
376,al kharijah,25.4514,30.5464,21.47,30,89,3.78,EG,1712871314
377,teays valley,38.4501,-81.9293,18.65,97,80,4.65,US,1712871315
378,ghanzi,-21.5667,21.7833,19.31,35,35,3.51,BW,1712871315
379,douentza,14.9951,-2.9517,33.09,13,94,1.3,ML,1712871315
380,elin-yurt,43.6731,44.9589,12.78,84,61,1.11,RU,1712871315
381,mossel bay,-34.1831,22.146,10.96,73,0,2.96,ZA,1712871315
382,naze,28.3667,129.4833,18.51,88,88,2.18,JP,1712871249
383,nar'yan-mar,67.6713,53.087,1.73,100,100,7.6,RU,1712871315
384,uturoa,-16.7333,-151.4333,29.12,75,46,7.36,PF,1712871315
385,soro,21.2881,86.6858,25.7,44,76,2.17,IN,1712871315
386,yelizovo,53.1873,158.3805,3.08,41,0,5.0,RU,1712871315
387,richards bay,-28.783,32.0377,18.14,68,86,5.69,ZA,1712871315
388,kozloduy,43.7833,23.7333,16.0,50,0,1.54,BG,1712871315
389,yuanping,38.7153,112.7575,14.41,43,40,0.43,CN,1712871315
390,bamboo flat,11.7,92.7167,26.96,81,7,2.19,IN,1712871315
391,st. paul,44.9444,-93.0933,16.14,43,20,7.6,US,1712871131
392,essaouira,31.5125,-9.77,20.72,68,10,1.54,MA,1712870949
393,thohoyandou,-22.9456,30.485,16.04,84,82,2.39,ZA,1712871315
394,degtyarsk,56.704,60.0879,8.18,80,100,7.97,RU,1712871315
395,valdivia,-39.8142,-73.2459,20.05,66,0,1.01,CL,1712871212
396,horta,38.5333,-28.6333,15.57,93,93,1.34,PT,1712871316
397,chernyshevskiy,63.0128,112.4714,-33.22,100,20,1.21,RU,1712871316
398,tabatinga,-4.2525,-69.9381,30.05,70,40,2.06,BR,1712871316
399,lautoka,-17.6167,177.4667,28.92,70,20,1.54,FJ,1712871316
400,kamien pomorski,53.9685,14.7726,13.2,89,88,5.53,PL,1712871316
401,ciudad lazaro cardenas,17.9583,-102.2,27.77,61,0,3.69,MX,1712871316
402,fort bragg,35.139,-79.006,22.33,86,100,8.23,US,1712871316
403,khandyga,62.6667,135.6,-4.91,90,99,2.92,RU,1712871316
404,birpur,26.5167,87.0167,24.84,35,11,3.12,IN,1712871316
405,zhosaly,45.4878,64.0781,9.43,49,22,8.43,KZ,1712871316
406,qianzhou,28.3167,109.7167,14.12,96,59,0.6,CN,1712871316
407,tual,-5.6667,132.75,28.55,71,92,2.88,ID,1712871316
408,aberdeen,57.1437,-2.0981,13.63,79,100,4.63,GB,1712871202
409,launceston,-41.45,147.1667,7.86,93,76,2.06,AU,1712871316
410,rakops,-21.0167,24.3333,22.7,47,87,7.25,BW,1712871316
411,eenhana,-17.4667,16.3333,23.57,62,82,1.08,NA,1712871316
412,aleksandrovsk-sakhalinskiy,50.8975,142.1561,3.09,92,71,8.1,RU,1712871316
413,ballinasloe,53.3275,-8.2194,12.3,95,100,6.88,IE,1712871317
414,chapada dos guimaraes,-15.4606,-55.7497,22.81,92,100,0.33,BR,1712871317
415,saint-pierre,-21.3393,55.4781,25.82,73,0,2.57,RE,1712871281
416,nadym,65.5333,72.5167,-13.91,73,100,13.29,RU,1712871317
417,dong ha,16.8163,107.1003,22.82,97,64,1.27,VN,1712871317
418,corredor,8.64,-82.946,30.79,90,100,1.15,CR,1712871317
419,necochea,-38.5473,-58.7368,10.37,67,83,3.39,AR,1712871317
420,tucuma,-0.1833,-50.05,26.48,88,100,2.61,BR,1712871317
421,chicoana,-25.1009,-65.5331,19.03,97,100,1.4,AR,1712871317
422,cidreira,-30.1811,-50.2056,20.31,83,100,8.12,BR,1712871317
423,al fqih ben calah,32.5009,-6.6906,22.61,28,8,4.14,MA,1712871317
424,north battleford,52.7834,-108.2847,11.34,24,0,3.09,CA,1712871023
425,fale old settlement,-9.3852,-171.2468,29.55,76,23,3.81,TK,1712871317
426,mil'kovo,55.6078,37.7956,10.75,62,31,3.8,RU,1712871317
427,haining,30.5363,120.6864,18.01,99,99,1.29,CN,1712871317
428,khabarovsk,48.4808,135.0928,8.59,70,100,1.0,RU,1712871155
429,datong,40.0936,113.2914,15.26,36,69,4.07,CN,1712871317
430,nagqu,31.5,92.0,-1.99,53,100,3.74,CN,1712871162
431,candelaria,13.9311,121.4233,21.61,94,76,1.57,PH,1712871317
432,mount gambier,-37.8333,140.7667,12.76,66,100,1.47,AU,1712871206
433,afaahiti,-17.75,-149.2833,29.93,86,98,7.48,PF,1712871317
434,iquique,-20.2208,-70.1431,22.02,84,47,2.46,CL,1712870890
435,los llanos de aridane,28.6585,-17.9182,20.86,60,40,5.14,ES,1712871318
436,humberto de campos,-2.5983,-43.4611,25.84,95,100,1.43,BR,1712871318
437,turgen,43.4006,77.5933,8.07,64,100,4.1,KZ,1712871318
438,xam nua,20.4197,104.0439,18.52,93,65,1.04,LA,1712871318
439,acarau,-2.8856,-40.12,26.79,85,97,3.46,BR,1712871318
440,rosporden,47.9667,-3.8333,10.78,91,4,1.52,FR,1712871318
441,nuuk,64.1835,-51.7216,-1.66,93,100,2.57,GL,1712871297
442,olds,51.7834,-114.102,11.08,28,100,6.17,CA,1712871318
443,keyser,39.4409,-78.9739,19.97,88,100,1.9,US,1712871318
444,gadzhiyevo,69.2551,33.3362,0.11,93,100,11.07,RU,1712871318
445,howrah,22.5892,88.3103,26.0,65,40,2.06,IN,1712871318
446,weifang,36.71,119.1019,13.84,79,37,4.16,CN,1712871318
447,togitsu,32.8333,129.85,13.99,100,75,1.54,JP,1712871318
448,camamu,-13.9447,-39.1039,25.26,89,14,1.7,BR,1712871318
449,bodaybo,57.8506,114.1933,-4.84,97,100,1.48,RU,1712871318
450,charters towers,-20.1,146.2667,19.78,58,0,2.57,AU,1712871318
451,mbandaka,0.0487,18.2603,23.96,87,99,1.36,CD,1712871318
452,remire-montjoly,4.9167,-52.2667,29.02,79,75,6.17,GF,1712871202
453,aktau,43.65,51.2,13.32,59,10,6.4,KZ,1712871319
454,quesnel,52.9999,-122.5029,13.28,33,40,6.17,CA,1712871295
455,thinadhoo,0.5333,72.9333,28.52,73,99,0.58,MV,1712871319
456,shimoda,34.6667,138.95,13.39,82,83,6.34,JP,1712871319
457,el sauzal de rodriguez,31.9,-116.6833,17.45,70,43,2.45,MX,1712871319
458,eraan,9.0629,117.7016,24.95,86,66,2.73,PH,1712871319
459,formosa,-26.1775,-58.1781,22.76,96,100,1.79,AR,1712871136
460,ariquemes,-9.9133,-63.0408,25.14,97,100,1.49,BR,1712871319
461,palopo,-2.9996,120.1921,23.96,96,100,1.75,ID,1712871319
462,trabzon,40.9167,39.8333,10.05,88,75,2.57,TR,1712871319
463,alakurtti,66.9672,30.3491,1.11,82,99,5.37,RU,1712871319
464,santiago de cao,-7.9589,-79.2392,22.07,83,75,4.63,PE,1712871319
465,celina,40.5489,-84.5702,18.25,97,100,6.71,US,1712871319
466,oamaru,-45.0784,170.9801,8.54,94,100,5.97,NZ,1712871319
467,nyurba,63.2842,118.3319,-25.11,99,48,1.54,RU,1712871319
468,geneina,13.45,22.45,27.11,11,23,5.18,SD,1712871319
469,burela de cabo,43.65,-7.4,14.46,88,98,2.04,ES,1712871319
470,gurupi,-11.7292,-49.0686,27.67,74,99,2.23,BR,1712871035
471,urzhar,47.093,81.6294,6.89,98,100,1.66,KZ,1712871319
472,kez,57.8979,53.7152,6.86,89,51,4.56,RU,1712871319
473,namtsy,62.7161,129.6658,-10.21,91,100,5.2,RU,1712871320
474,daru,-9.0763,143.2092,26.81,84,100,7.65,PG,1712871320
475,baise city,23.8997,106.6133,26.86,99,100,1.2,CN,1712871131
476,vilyuysk,63.7553,121.6247,-18.89,96,82,2.68,RU,1712871320
477,haifa,32.8156,34.9892,16.83,85,6,0.62,IL,1712871320
478,mantua,45.1667,10.7833,15.55,88,2,1.79,IT,1712871320
479,argo,37.6333,22.7333,17.91,43,97,4.97,GR,1712871320
480,kolwezi,-10.7148,25.4667,16.79,97,100,2.11,CD,1712871320
481,yanahuanca,-10.5167,-76.4986,11.62,77,67,3.32,PE,1712871320
482,smithers,54.7804,-127.1743,5.18,93,100,5.14,CA,1712871320
483,garhi khairo,28.0606,67.9803,31.24,14,70,5.68,PK,1712871320
484,mtambile,-5.3833,39.7,28.17,81,13,4.91,TZ,1712871320
485,leticia,-4.2153,-69.9406,30.03,74,20,2.06,CO,1712871320
486,oriximina,-1.7656,-55.8661,27.05,89,88,0.78,BR,1712871320
487,gazojak,41.1875,61.4036,18.82,34,100,4.02,TM,1712871320
488,garachico,28.7781,-17.7646,21.06,60,40,5.14,ES,1712871320
489,mahriz,31.5917,54.4318,15.28,33,0,3.48,IR,1712871320
490,nova vicosa,-17.8919,-39.3719,26.35,81,0,3.19,BR,1712871320
491,whakatane,-37.9585,176.9854,20.28,99,100,4.47,NZ,1712871248
492,kayangel,8.0823,134.7173,27.96,76,61,5.11,PW,1712871320
493,la'ie,21.6477,-157.9253,26.98,79,100,5.81,US,1712871320
494,weno,7.4515,151.8468,27.97,83,100,2.57,FM,1712871320
495,zhangye,38.9342,100.4517,12.13,33,86,2.29,CN,1712871321
496,deqing,30.5448,119.9599,17.75,98,97,0.9,CN,1712871321
497,zalegoshch',52.9008,36.8869,12.38,62,100,3.94,RU,1712871321
498,ballina,-28.8667,153.5667,17.1,89,79,5.1,AU,1712871321
499,betio village,1.358,172.9211,30.02,77,96,3.55,KI,1712871321
500,lewistown,40.5992,-77.5714,18.98,94,100,5.66,US,1712871321
501,glace bay,46.1969,-59.957,6.76,65,20,4.12,CA,1712871283
502,diamantino,-14.4086,-56.4461,23.27,95,83,1.65,BR,1712871321
503,mount isa,-20.7333,139.5,13.87,54,0,3.09,AU,1712871068
504,ust-nera,64.5667,143.2,-8.62,94,87,2.53,RU,1712871213
505,laascaanood,8.4774,47.3597,24.42,77,72,5.9,SO,1712871112
506,harar,9.3094,42.1258,19.6,52,74,0.81,ET,1712871321
507,laguna,38.421,-121.4238,29.5,44,0,0.45,US,1712871321
508,monte patria,-30.6919,-70.9467,22.18,36,3,2.59,CL,1712871321
509,naracoorte,-36.9579,140.7383,13.01,62,100,2.12,AU,1712871321
510,san miguel de cauri,-10.1,-76.5833,10.36,78,100,2.54,PE,1712871321
511,murang'a,-0.7167,37.15,18.11,94,54,1.29,KE,1712871321
512,leh,34.1667,77.5833,-11.32,90,87,2.08,IN,1712871321
513,el alto,-4.2714,-81.2147,27.81,73,87,4.68,PE,1712871322
514,usogorsk,63.4106,48.6872,4.81,100,100,6.94,RU,1712871314
515,crixas,-14.5489,-49.9692,23.15,86,93,1.48,BR,1712871235
516,kievka,50.2619,71.5514,-0.63,75,8,2.4,KZ,1712871322
517,jinshi,29.6049,111.8701,14.36,94,14,1.15,CN,1712871322
518,ponta delgada,37.7333,-25.6667,18.44,82,20,1.03,PT,1712871322
519,gilgit,35.9221,74.3087,8.14,68,100,1.39,PK,1712871097
520,afonso bezerra,-5.4983,-36.5056,25.54,90,99,2.65,BR,1712871322
521,fortuna,40.5982,-124.1573,14.96,77,0,7.72,US,1712871322
522,bima,-8.4667,118.7167,23.39,95,92,1.13,ID,1712871292
523,kulhudhuffushi,6.6221,73.07,29.37,74,44,2.77,MV,1712871322
524,changyon,38.2508,125.0961,9.57,82,0,2.14,KP,1712871322
525,dryden,49.7833,-92.7503,11.16,50,75,4.63,CA,1712871322
526,barcelos,41.5388,-8.6151,18.08,81,100,2.16,PT,1712871207
527,pudasjarvi,65.3833,26.9167,-1.01,98,91,2.01,FI,1712871322
528,berezovyy,51.6667,135.7,4.46,50,2,1.9,RU,1712871322
529,minas de marcona,-15.2119,-75.1103,19.29,70,3,6.96,PE,1712871322
530,makarov,48.6333,142.8,4.73,85,19,4.35,RU,1712871322
531,conception bay south,47.4999,-52.9981,3.53,78,0,2.94,CA,1712871322
532,ciro redondo,22.0135,-78.7059,32.71,37,32,5.45,CU,1712871322
533,teuva,62.4819,21.7416,3.1,97,100,3.31,FI,1712871322
534,vaasa,63.096,21.6158,2.94,100,100,4.02,FI,1712871323
535,hovd,48.0056,91.6419,4.9,48,97,1.22,MN,1712871323
536,ulaangom,49.9811,92.0667,0.78,61,77,2.07,MN,1712871323
537,podgornoye,51.735,39.1496,18.14,51,40,4.0,RU,1712871323
538,buala,-8.145,159.5921,28.59,74,100,1.37,SB,1712871298
539,maceio,-9.6658,-35.7353,28.69,78,20,3.6,BR,1712871271
540,palikir - national government center,6.9248,158.1611,28.47,94,100,1.54,FM,1712871323
541,pelabuhanratu,-6.9875,106.5514,26.07,93,100,2.2,ID,1712871323
542,nizao,18.25,-70.2,31.04,69,4,6.38,DO,1712871323
543,al ghayzah,16.2079,52.176,26.92,74,100,4.32,YE,1712871323
544,'ain el melh,34.8415,4.1638,6.73,79,77,8.62,DZ,1712871323
545,atasu,48.6814,71.6433,-0.65,75,4,5.14,KZ,1712871323
546,kissidougou,9.1848,-10.0999,24.97,76,79,2.24,GN,1712871323
547,praia da vitoria,38.7333,-27.0667,16.14,94,75,3.38,PT,1712871323
548,kailua-kona,19.6406,-155.9956,27.0,80,100,2.57,US,1712871076
549,homosassa springs,28.8036,-82.5759,25.69,74,40,5.14,US,1712871323
550,rouached,36.4577,6.0427,8.5,95,49,0.89,DZ,1712871323
551,undurkhaan,47.3194,110.6556,5.81,55,48,4.29,MN,1712871323
552,puerto santa,-8.9906,-78.6456,22.76,80,35,4.91,PE,1712871323
553,murun-kuren,49.6342,100.1625,0.12,99,95,1.98,MN,1712871324
554,jamjamal,35.5365,44.8317,7.19,72,38,2.28,IQ,1712871324
555,balsas,-7.5325,-46.0356,26.62,82,80,1.38,BR,1712871150
556,mamadysh,55.7152,51.408,12.74,81,78,4.96,RU,1712871324
557,resplendor,-19.3256,-41.2553,25.72,78,100,1.91,BR,1712871324
558,sumbe,-11.2061,13.8437,25.65,92,100,3.16,AO,1712871324
559,colares,38.7992,-9.4469,23.55,70,69,4.1,PT,1712871324
560,ma'an,26.9775,110.7211,18.71,99,93,0.89,CN,1712871324
561,nichlaul,27.3167,83.7333,23.25,12,1,2.71,IN,1712871324
562,quang ngai,15.1167,108.8,22.31,88,100,2.41,VN,1712871324
563,black mountain,35.6179,-82.3212,19.3,92,73,1.79,US,1712871324
564,ouesso,1.6136,16.0517,23.81,85,91,1.28,CG,1712871324
565,villa gesell,-37.2639,-56.973,13.36,58,99,4.17,AR,1712871324
566,isangel,-19.55,169.2667,27.06,94,75,0.0,VU,1712871255
567,poggio di chiesanuova,43.9045,12.4214,13.65,73,94,3.09,SM,1712871324
568,caleta de carquin,-11.0925,-77.6267,23.54,77,58,4.53,PE,1712871324
